Ten,Dia chi,Loai,So dien thoai,Hinh anh,Link Anh Goc,Gioi thieu,Website,Lat,Lng,Tu khoa goc
Cục Quản Lý Xuất Nhập Cảnh TP. HCM,"337 Nguyễn Trãi, Phường Nguyễn Cư Trinh, Quận 1, Thành phố Hồ Chí Minh, Việt Nam",Phòng visa và hộ chiếu,+84 28 3920 1701,downloaded_images\c59adf9500669a21b498dc3261464d54.jpg,https://lh3.googleusercontent.com/gps-cs-s/AG0ilSzO_R6KW9ZwDj0k1JQl-Qm0XjudqbycGEksOKtnehkRZY8DbCB4G20hWiOfin6qAfooa9_p_WuOYRxVoYqUXQf3gLkZG22u3ACOZtFWvclsXEA4DrWJiA3F1OVdBJaB4nxjMtB3_-l6ivfw=w1920-h1920-no,Không có,https://hochieu.xuatnhapcanh.gov.vn/,10.7614574,106.6861867,Cục Quản lý Xuất nhập cảnh tại TPHCM
Phòng Quản Lý Xuất Nhập Cảnh TP. HCM,"196 Nguyễn Thị Minh Khai, Phường 6, Quận 3, Thành phố Hồ Chí Minh, Việt Nam",Phòng visa và hộ chiếu,+84 28 3829 9398,downloaded_images\63bf11c3f92aa87121dc77b4365af0dc.jpg,https://lh3.googleusercontent.com/gps-cs-s/AG0ilSwmQLXsd4voGCZ78ca9fOsxPVmKQ2KLe0iyr3Jg688PAWX4vpG0TD2Hu1Oh6uIkf9Rx80lU0A_i5Fo467L-MqqThNlKPiM6Xwga6D42j6ZN5Yik0Cj1F4CURZAGchijJJaFqz16Aw=w1920-h1920-no,Không có,https://xuatnhapcanh.gov.vn/en/tin-tuc-xnc-viet-nam,10.7756362,106.69112179999999,Cục Quản lý Xuất nhập cảnh tại TPHCM
Quản lý xuất nhập cảnh,"179 Nguyễn Cư Trinh, Phường Nguyễn Cư Trinh, Quận 1, Thành phố Hồ Chí Minh, Việt Nam",Văn phòng chính phủ,Không có,Không có,,Không có,Không có,10.7627021,106.6875098,Cục Quản lý Xuất nhập cảnh tại TPHCM
Công an Thành phố Hồ Chí Minh,"268 Trần Hưng Đạo, Phường Cầu Ông Lãnh, Quận 1, Thành phố Hồ Chí Minh 700000, Việt Nam",Đồn cảnh sát,+84 28 3920 1605,downloaded_images\5f60bf26fa209e703f7db659da6f5093.jpg,https://lh3.googleusercontent.com/gps-cs-s/AG0ilSyfAxB5AwACpapVg7pp2cHD9qC-QBH-3WlYWgIjyP-LhxyuQn_MGd8o2MSpxkxNEpRqMjDwOUVEiSY9uprjJ4TKBQ7WvqnYVH9YXIKrwq7y8QjU5Ay0RVvmju51_fh9kNnb-l6v=w1920-h1920-no,Không có,http://congan.hochiminhcity.gov.vn/,10.7588409,106.6869258,Phòng Quản lý Xuất nhập cảnh Công an TPHCM
Dịch Vụ Xuất Nhập Cảnh,"Tầng 6, Tòa Nhà Indochina Park, 4, Nguyễn Đình Chiểu, Phường Đa Kao, Quận 1, Đa Kao, Quận 1, Thành phố Hồ Chí Minh, Việt Nam",Dịch vụ pháp lý,+84 28 3822 2165,downloaded_images\5621fca9f87c0aa77537e59a89c89d16.jpg,https://streetviewpixels-pa.googleapis.com/v1/thumbnail?panoid=wZane2B67wlOPy31I3MiSw&cb_client=search.gws-prod.gps&w=80&h=92&yaw=66.10166&pitch=0&thumbfov=100,Không có,Không có,10.7917952,106.7023182,Phòng Quản lý Xuất nhập cảnh Công an TPHCM
Passport (Phòng cảnh sát môi trường),"196 Nguyễn Thị Minh Khai, Phường 6, Quận 3, Thành phố Hồ Chí Minh, Việt Nam",Văn phòng chính phủ,Không có,downloaded_images\e2d760e601cf62e8ed4c76f6e9743ce6.jpg,https://lh3.googleusercontent.com/gps-cs-s/AG0ilSymRvHByecqcr1o7lfcG2v5hQ-CW6DHk1P_j3gb7K46NUqILm8TWKEpMXYBSg7lnxOYYbL_zX1No2dpLlCGGbq5uDSk1XV2WZBmRWgQc_yJQKueLYWkCvf2J52UYZca0HTzv0Pm=w1920-h1920-no,Không có,Không có,10.7757677,106.690917,Phòng Quản lý Xuất nhập cảnh Công an TPHCM
Phòng Cảnh sát Quản lý hành chính về trật tự xã hội CATP (PC06),"258 Trần Hưng Đạo, Phường Nguyễn Cư Trinh, Quận 1, Thành phố Hồ Chí Minh, Việt Nam",Cảnh sát dân sự,+84 838 387 257,downloaded_images\b09d4d89ba169775bb3f21c2cec6139a.jpg,https://lh3.googleusercontent.com/gps-cs-s/AG0ilSynQWUJ6-5fOpNY4Pvij_4ohNCt81-oEj7OF6nEZcmIxmufGycl0n5zdEBrSVUemg21HCUIQ4bwpgtJe2hFXHiQgSqodOOiasEAGG32AaoL1DBpVHIWUKIIwLEj6SZG7agN0j0=w1920-h1920-no,Không có,Không có,10.7606147,106.68849639999999,Phòng Quản lý Xuất nhập cảnh Công an TPHCM
Tổng cục Cảnh sát Phía Nam,"258 Nguyễn Trãi, Phường Nguyễn Cư Trinh, Quận 1, Thành phố Hồ Chí Minh, Việt Nam",Sở cảnh sát,+84 868 956 042,Không có,,Không có,Không có,10.761418599999999,106.6851404,Phòng Quản lý Xuất nhập cảnh Công an TPHCM
Phòng Quản lý Xuất Nhập cảnh,"78 Lê Lợi, Thạch Thang, Hải Châu, Đà Nẵng 550000, Việt Nam",Văn phòng chính phủ khu vực,+84 69 426 01 86,downloaded_images\3997ad39684dc84f439bf17dcb15b129.jpg,https://lh3.googleusercontent.com/gps-cs-s/AG0ilSz14X4uvaWrHEPgRViQq5J1EYmHUkYeZj93HDm6YIcNtx9EAcHwSTPKIRqF67OaJna3dOESMtsvZPHdQ7XOa5pUl5Q88YIdwreVc8q_aRyc8Xtw9_qDUyp0HChOgd2P7aPUu3T7Cw=w1920-h1920-no,Không có,https://danang.xuatnhapcanh.gov.vn/,16.0774547,108.21940289999999,Phòng Quản lý Xuất nhập cảnh Công an TPHCM
Đội Tuần Tra Dẫn Đoàn - Phòng Cảnh Sát Giao Thông Đường Bộ Đường Sắt,"282 Nơ Trang Long, Phường 12, Bình Thạnh, Thành phố Hồ Chí Minh, Việt Nam",Cảnh sát liên bang,+84 969 552 443,Không có,,Không có,Không có,10.8146306,106.6979544,Phòng Cảnh sát giao thông đường bộ - đường sắt TPHCM
Phòng CSGT Đường Bộ - Đội Tuần Tra Dẫn Đoàn,"16 Phạm Ngọc Thạch, Phường 6, Quận 3, Thành phố Hồ Chí Minh 700000, Việt Nam",Cảnh sát liên bang,Không có,Không có,,Không có,Không có,10.7839806,106.6947404,Phòng Cảnh sát giao thông đường bộ - đường sắt TPHCM
Phòng Cảnh sát Giao thông PC08,"341 Đường Trần Hưng Đạo, Cầu Kho, Quận 1, Thành phố Hồ Chí Minh, Việt Nam",Sở cảnh sát,Không có,downloaded_images\c19ade26140e6bfd14596c11bdca8161.jpg,https://lh3.googleusercontent.com/gps-cs-s/AG0ilSzMTS4WJ8bsIBMkxkn5_zqANePm_K56ehIWoWhK1AobmxorCQttdR0C-O8tiZzyJ6RYFqnKnNxUOyg9eMOdVJ4kToSWefqFdACDj7t7HUJri2u7fXh-BamlOxbNyUtb2Peme-rZ=w1920-h1920-no,Không có,/url?q=http://csgt-congan.hochiminhcity.gov.vn/wps/portal/Home/trang-chu&opi=79508299&sa=U&ved=0ahUKEwiq1s3ZyKqRAxWZJkQIHVDzCOAQ61gIQigM&usg=AOvVaw15HJ3HRuGxBwJjHZuGnKsS,10.761022299999999,106.68948639999999,Phòng Cảnh sát giao thông đường bộ - đường sắt TPHCM
Sở Tư Pháp TP.HCM,"143 Pasteur, Phường 6, Quận 3, Thành phố Hồ Chí Minh, Việt Nam",Bộ phận tư pháp,+84 28 3829 7052,downloaded_images\aefe423257843c6164c8c8920d3199fd.jpg,https://lh3.googleusercontent.com/p/AF1QipPWcAlzj1bxAcb6F2Ua4o8RsiabFYVkbGbVCmKz=w1920-h1920-no,Không có,https://sotuphap.hochiminhcity.gov.vn/,10.7838014,106.6920622,Sở Tư pháp TPHCM
Phòng Tư Pháp Quận 6,"107 Đ. Cao Văn Lầu, Phường 1, Quận 6, Thành phố Hồ Chí Minh 70000, Việt Nam",Văn phòng chính phủ,Không có,downloaded_images\1b3105b4cc01626168c94077df9ae77b.jpg,https://streetviewpixels-pa.googleapis.com/v1/thumbnail?panoid=OOr9_aBz_3McijxtowCQyQ&cb_client=search.gws-prod.gps&w=80&h=92&yaw=256.5014&pitch=0&thumbfov=100,Không có,Không có,10.74625,106.649591,Sở Tư pháp TPHCM
Cục công tác phía Nam - Sở Tư pháp,"30 Trần Cao Vân, Phường 6, Quận 3, Thành phố Hồ Chí Minh, Việt Nam",Bộ phận tư pháp,Không có,downloaded_images\7140529b5fd92e345328436b9c0c753e.jpg,https://lh3.googleusercontent.com/gps-cs-s/AG0ilSxoFRCZk4evkjDIh8o3OJy-8qzZhrY-pkX1Olsg5cEmAKFHiRT_XnCDEdU2d2t-ejK2m_KpGllK5fwAkKxlSoAA4GPIIK3pntCbvX2OaNyhIX1BCQS7iJnSHeVHX59MAkomW9XN=w1920-h1920-no,Không có,Không có,10.7826724,106.6964538,Sở Tư pháp TPHCM
Phòng Tư Pháp Quận Tân Phú,"70A Thoại Ngọc Hầu, Hòa Thạnh, Tân Phú, Thành phố Hồ Chí Minh, Việt Nam",Bộ phận tư pháp,Không có,downloaded_images\0b0f25a9913eaaba1fe1b4c9481ed2e9.jpg,https://streetviewpixels-pa.googleapis.com/v1/thumbnail?panoid=CvqQWkX3mil0jTXwQ7svYA&cb_client=search.gws-prod.gps&w=80&h=92&yaw=330.91016&pitch=0&thumbfov=100,Không có,Không có,10.7822347,106.6364663,Sở Tư pháp TPHCM
Phòng Tư Pháp Quận 5,"203 An Dương Vương, Phường 7, Quận 5, Thành phố Hồ Chí Minh 70000, Việt Nam",Văn phòng chính phủ,+84 28 3855 1203,downloaded_images\7888e310a574be5b43247f439a8b3ac3.jpg,https://streetviewpixels-pa.googleapis.com/v1/thumbnail?panoid=7_PWu0VFearhZU1jIV2Dmg&cb_client=search.gws-prod.gps&w=80&h=92&yaw=178.94894&pitch=0&thumbfov=100,Không có,Không có,10.756316499999999,106.6686285,Sở Tư pháp TPHCM
Phòng Hộ Tịch - Quốc Tịch,"Sở Tư Pháp, 141-143, Pasteur, Phường 6, Quận 3, Thành Phố Hồ Chí Minh, 214 Nam Kỳ Khởi Nghĩa, Phường 6, Quận 3, Thành phố Hồ Chí Minh, Việt Nam",Sở tư pháp,+84 28 3825 1402,downloaded_images\88c604f34b98a94a0aaa2467a681091b.jpg,https://lh3.googleusercontent.com/gps-cs-s/AG0ilSwnaiNjN4g3w-c2rSKHU4hmItKl9Jgzn9tfXqlhZYDt60SzkgDuw9zvHTZ0kUt_UmnitExF4h7Jp5A2ns3d77vptx7GXWdUBHtL92Fz6qBLSk1L_PO5T0dMMp4bftGXJLHGacE=w1920-h1920-no,Không có,Không có,10.7835839,106.691627,Sở Tư pháp TPHCM
Phòng Tư Pháp Quận Bình Tân,"Ủy Ban Nhân Dân, 521 Đ. Kinh Dương Vương, An Lạc, Bình Tân, Thành phố Hồ Chí Minh 70000, Việt Nam",Phòng tư pháp quận,+84 28 3875 2406,downloaded_images\efc7a7b73e8187cc811054afd100b3e1.jpg,https://streetviewpixels-pa.googleapis.com/v1/thumbnail?panoid=wBOVzd9fd8h6dst8IBY4qg&cb_client=search.gws-prod.gps&w=80&h=92&yaw=181.5033&pitch=0&thumbfov=100,Không có,Không có,10.7370556,106.6150272,Sở Tư pháp TPHCM
Trung tâm Thông tin và tư vấn công chứng,"25/5 Hoàng Việt, Phường 4, Tân Bình, Thành phố Hồ Chí Minh, Việt Nam",Sở tư pháp,+84 28 3811 5818,downloaded_images\e3d7df1049229ff4cca0a4e70d55532b.jpg,https://streetviewpixels-pa.googleapis.com/v1/thumbnail?panoid=VHUhgzgYLSudKQZGXrikVA&cb_client=search.gws-prod.gps&w=80&h=92&yaw=89.2793&pitch=0&thumbfov=100,Không có,Không có,10.7950313,106.65977819999999,Sở Tư pháp TPHCM
Phòng Tư Pháp,"175B Đ. Nguyễn Văn Trỗi, Phường 11, Phú Nhuận, Thành phố Hồ Chí Minh, Việt Nam",Văn phòng chính phủ,Không có,downloaded_images\c61a9da7fca35797489fb11807893f27.jpg,https://streetviewpixels-pa.googleapis.com/v1/thumbnail?panoid=prqhJXBhD1DtPcvIBp_LNw&cb_client=search.gws-prod.gps&w=80&h=92&yaw=299.20306&pitch=0&thumbfov=100,Không có,Không có,10.7941342,106.67589579999999,Sở Tư pháp TPHCM
Văn phòng Bộ Tư pháp tại TP. Hồ Chí Minh,"200c Võ Văn Tần, Phường 5, Quận 3, Thành phố Hồ Chí Minh 70052, Việt Nam",Văn phòng chính phủ khu vực,+84 28 3818 1995,downloaded_images\c24435687b458bf1b2faa2e52c0ee33f.jpg,https://lh3.googleusercontent.com/gps-cs-s/AG0ilSxWJii5VguI-eUQ_lc6ooDfHVinTjJFHgXQdCxydhQm0ZA3WAK6Wk6wfIx5FBGuQw7ts549emxLnVzDV2Z2TooBuEPD_BkDBK-nsBkNRGaJ3OrjDfjn7FHPW41WiY1hC4Wnl7e6=w1920-h1920-no,Không có,Không có,10.773678799999999,106.6867482,Sở Tư pháp TPHCM
Trung tâm dịch vụ bán đấu giá tài sản,"19/5 Hoàng Việt, Phường 4, Tân Bình, Thành phố Hồ Chí Minh, Việt Nam",Sở tư pháp,+84 28 3811 9849,downloaded_images\412823761e6c83102ccd215a21327b45.jpg,https://lh3.googleusercontent.com/gps-cs-s/AG0ilSzb9bdcKXdZI3TZl7p1BeNCzGHf5c9Hg-qCTRzl9Eet_vvF8IIkAY51xXK5RgKFMStW-jIVDMARBJiDRVZb2VIU-VH_yX9aPHVVsOJ4vXCbqXKJu1K5Ih3ONZUweroQquQ2cOEVJMoIe3xL=w1920-h1920-no,Không có,https://sotuphap.hochiminhcity.gov.vn/gt-bdgts,10.7964883,106.6602238,Sở Tư pháp TPHCM
Phòng Tuyên Truyền,"Sở Tư Pháp, 141-143, Pasteur, Phường 6, Quận 3, Thành Phố Hồ Chí Minh, Việt Nam",Văn phòng chính quyền địa phương,Không có,downloaded_images\2409b164d6667cba079e424adf73f796.jpg,https://streetviewpixels-pa.googleapis.com/v1/thumbnail?panoid=RYmhAon7Ql5GJSrY9HdOPA&cb_client=search.gws-prod.gps&w=80&h=92&yaw=284.79593&pitch=0&thumbfov=100,Không có,Không có,10.7843219,106.6915082,Sở Tư pháp TPHCM
Đội Quản lý Thi Hành Án Dân Sự Quận Tân Phú,"320/21 Đ. Độc Lập, Tân Quý, Tân Phú, Thành phố Hồ Chí Minh, Việt Nam",Sở tư pháp,+84 28 3847 4169,downloaded_images\4f5c3d38468aa457c32583a8c25aabc3.jpg,https://lh3.googleusercontent.com/gps-cs-s/AG0ilSyuUdbKZbTtZ47scUdsLvW0T5ALSuwdNMcfK3Hx_57MRjvSPR3zVCJsHD0jVn9-3SSMcX2eMNeX2w5CNPl61e8KQIDi56U6qKpdqjMGhjPMDoVTGt0xgz-mFCV_uh3vmgnaR-B9qyCQEFRE=w1920-h1920-no,Không có,Không có,10.793925,106.62639589999999,Sở Tư pháp TPHCM
Sở Xây dựng TP.HCM,"60 Trương Định, Phường Võ Thị Sáu, Quận 3, Thành phố Hồ Chí Minh, Việt Nam",Văn phòng chính quyền thành phố,+84 28 3932 5945,downloaded_images\26a96ed28ae79d11be1d892d2de142f4.jpg,https://lh3.googleusercontent.com/gps-cs-s/AG0ilSyLgBe1BeXsOM3HmD9O0khXRhQ9L_7ZjkpCUMi8tx0ft-OT3T565Z0Vub_orarmfvmsEx0IOxf4QAJpXGWaglsxjmBPOfptbsgKSK7owdFOEn1CI9FC2ZvZw1J_3BL3W7l29qfB=w1920-h1920-no,Không có,https://soxaydung.hochiminhcity.gov.vn/,10.7821239,106.68489989999999,Sở Tư pháp TPHCM
Luật Sư Thế,"QGQX+89V, Đ. Vĩnh Lộc, Vĩnh Lộc B, Bình Chánh, Thành phố Hồ Chí Minh, Việt Nam",Sở tư pháp,+84 938 190 258,Không có,,Không có,http://www.hcmcbar.org/,10.7883675,106.54841119999999,Sở Tư pháp TPHCM
Lãnh sự quán Lào,"93 Pasteur, Bến Nghé, Quận 1, Thành phố Hồ Chí Minh, Việt Nam",Tòa lãnh sự nước ngoài,+84 28 3829 7667,downloaded_images\64d3187f5a213631c1046aa22563ffc1.jpg,https://lh3.googleusercontent.com/gps-cs-s/AG0ilSw25mJWhOqWziD-XkHDOTxmPue4cMd9RUQWB0DacX-556JP5QhXup-t3BDLp4MhwwQEKYko4EOYS2DQeIbcAzzhmH7eyalWyp5D-TOjh4KzTr4ahaeFG7NxkR7r4PGs81me1Vlr=w1920-h1920-no,Không có,http://www.chinhphu.vn/portal/page/portal/English/foreignembassies/detail?diplomacyNationId=424&diplomacyZoneId=105,10.7772391,106.6991053,Danh sách Lãnh sự quán tại TPHCM
Tổng Lãnh sự quán Hoa Kỳ,"4 Lê Duẩn, Bến Nghé, Quận 1, Thành phố Hồ Chí Minh, Việt Nam",Tòa lãnh sự nước ngoài,+84 28 3520 4200,downloaded_images\93949f9160523dda727b6efbe4c445d6.jpg,https://lh3.googleusercontent.com/gps-cs-s/AG0ilSzr6NUXTGY1kB1H_F_s41KvxtVi70eZgxsGy5b-bamrrTv8vzCUvv3hsgQ97aaCngyBDs3NrzdVU6FDzr6NNGhoCGL3kf1lkDCfgXARGL4yLGdmE1LlFLPinPNwCBHNZnx5Dnrwhg=w1920-h1920-no,Không có,Không có,10.7834782,106.7006011,Danh sách Lãnh sự quán tại TPHCM
Tổng Lãnh sự quán Đức tại Tp. Hồ Chí Minh,"33 Lê Duẩn, Bến Nghé, Quận 1, Thành phố Hồ Chí Minh, Việt Nam",Tòa lãnh sự nước ngoài,+84 28 3828 8100,downloaded_images\7dde1855c4782a5b4490df9be9040b40.jpg,https://lh3.googleusercontent.com/gps-cs-s/AG0ilSzmpss1X4SHLS_zxZfPp4JEbd6yQalgBM2fzs-K508A73MTmE_snFPyX8uerAiT2vJVywKsx_TH6PEK9O0yaFPdlGnFa10Oyc3boDiuaMPbDIeApg0yK4z4RHnX6AQFjYqwydgksQ=w1920-h1920-no,Không có,http://vietnam.diplo.de/,10.782295999999999,106.7007338,Danh sách Lãnh sự quán tại TPHCM
Tổng Lãnh Sự Quán Vương Quốc Hà Lan,"29 Lê Duẩn, Bến Nghé, Quận 1, Thành phố Hồ Chí Minh, Việt Nam",Tòa lãnh sự nước ngoài,+84 28 3823 5932,downloaded_images\df5c3138a7b5ed311824902df0e06d10.jpg,https://lh3.googleusercontent.com/gps-cs-s/AG0ilSy87kpilgh8RAxHjiJ7C77m3F96gHz2DPeKrhYWJq0lAlEm4WZkw_k_liUqxDWvIewIGiQb4Uaswz8LYvQ7KoEE1LmflsIJgMSeAhlYWKuhTyMbe4SMDowsVUKiZ_8c4aWdYVrDSA=w1920-h1920-no,Không có,Không có,10.7826872,106.7011895,Danh sách Lãnh sự quán tại TPHCM
Tổng Lãnh Sự Quán Mỹ Tại Thành Phố Hồ Chí Minh,"4 Lê Duẩn, Bến Nghé, Quận 1, Thành phố Hồ Chí Minh, Việt Nam",Tòa lãnh sự nước ngoài,Không có,downloaded_images\df92f1c5e9d7ee90e10bb06cdfa1fc70.jpg,https://streetviewpixels-pa.googleapis.com/v1/thumbnail?panoid=-iBcicjTRuD0TMbV0HL1Eg&cb_client=search.gws-prod.gps&w=80&h=92&yaw=308.34543&pitch=0&thumbfov=100,Không có,Không có,10.787084,106.7042926,Danh sách Lãnh sự quán tại TPHCM
Tổng lãnh sự quán Hàn Quốc,"107 Nguyễn Du, Phường Bến Thành, Quận 1, Thành phố Hồ Chí Minh, Việt Nam",Tòa lãnh sự nước ngoài,+84 28 3822 5757,downloaded_images\d2e321fa3beb3228763b86adf042d6b5.jpg,https://lh3.googleusercontent.com/gps-cs-s/AG0ilSzx--cI6Tsmen3z2bvpcI8yBdutl7nCSu_gTN0mku6qszwnj1o4RA5aXwqVdFHB_Bvvqz72swuWy0tixz-3HeIbpv2C2vjF2wy0dxa1blCpLTfuSmSDOj9undDP6VtihK5OyDc0ig=w1920-h1920-no,Không có,Không có,10.7743367,106.6957231,Danh sách Lãnh sự quán tại TPHCM
Lãnh sự quán Cộng hòa Phần Lan,"203 Đồng Khởi, Bến Nghé, Quận 1, Thành phố Hồ Chí Minh, Việt Nam",Đại sứ quán,+84 28 3827 2029,downloaded_images\79d28cdc173868a7320d6a08297d89e9.jpg,https://streetviewpixels-pa.googleapis.com/v1/thumbnail?panoid=D9bo2jseP5khLR7myQIL0Q&cb_client=search.gws-prod.gps&w=80&h=92&yaw=228.94995&pitch=0&thumbfov=100,Không có,Không có,10.77694,106.701849,Danh sách Lãnh sự quán tại TPHCM
Tổng lãnh sự quán Indonesia tại TP Hồ Chí Minh,"18 Phùng Khắc Khoan, Đa Kao, Quận 1, Thành phố Hồ Chí Minh, Việt Nam",Văn phòng chính phủ,+84 28 3825 1888,downloaded_images\be16ec9b8cd45ee8549a27ed6f7720ca.jpg,https://lh3.googleusercontent.com/gps-cs-s/AG0ilSzBaSo6IpkU9PZRlTFmjeJbv5Tu53aieJD5-IsDCKmGZjEhlfuZy7BprSkVmtLAK-HasxtiH96C5BhnyQrdXwAObqDSSuMG8gHe8vqGb3QtOQP_5YUTfejzseQWzMDb0tG7oyynmA=w1920-h1920-no,Không có,https://kemlu.go.id/hochiminhcity,10.7852743,106.6973197,Danh sách Lãnh sự quán tại TPHCM
Tổng Lãnh Sự Quán Úc,"Tòa nhà Vincom, 47 Lý Tự Trọng, Bến Nghé, Quận 1, Thành phố Hồ Chí Minh, Việt Nam",Tòa lãnh sự nước ngoài,+84 28 3521 8100,downloaded_images\38046700a3026e578daab0b22620aa39.jpg,https://lh3.googleusercontent.com/gps-cs-s/AG0ilSzglUj7oQT0G03pL-0NpbUu_8I2yBbhFojRAZ7iSbCDB8xP6xfP73T7dxDxv5-S8ZBSkWH-W1eHIa8Z2u92h7aMAJdccZ325FWcMrZz3wjMDZSsYOJGufL_b6IMWBnhNhLx_eya=w1920-h1920-no,Không có,http://hcmc.vietnam.embassy.gov.au/,10.7780495,106.7017714,Danh sách Lãnh sự quán tại TPHCM
Tổng Lãnh sự quán Liên bang Nga tại TP. Hồ Chí Minh,"40 Bà Huyện Thanh Quan, Phường 6, Quận 3, Thành phố Hồ Chí Minh 70215, Việt Nam",Tòa lãnh sự nước ngoài,+84 28 3930 3936,downloaded_images\77231f2023d75cb8e7ec486e9cb02b38.jpg,https://lh3.googleusercontent.com/gps-cs-s/AG0ilSzuSZqUkMEfYYLV0otw93ND_MYbwQQe-F_4M0-dkz9_otcAtEHPNSAhb8LnSpB7mrwogfjScdZEebXVsupjrsW_jOLlGDN7jlsoOaSZBDnMMShtxkR-ukCr7rxMank4gkwgQfS18g=w1920-h1920-no,Không có,https://www.facebook.com/RusConsulGenHCMC,10.7775505,106.6878981,Danh sách Lãnh sự quán tại TPHCM
Tổng Lãnh Sự Quán Pháp,"27 Nguyễn Thị Minh Khai, Bến Nghé, Quận 1, Thành phố Hồ Chí Minh, Việt Nam",Tòa lãnh sự nước ngoài,+84 28 3520 6800,downloaded_images\369b61ae272b53a6793008ccbf3ac616.jpg,https://lh3.googleusercontent.com/gps-cs-s/AG0ilSxr7oFvaeoFH9aDK2i4W_lExJTgsKZdd5xHbK9bXDTa3WtQy9U2xwyavHsy4HTs-i4tN65mAbKcJRDdQ4sxH4wSfOIyApt0E1X7c2Wks4cPtHp9yovmM6fRv_srd12Sddz8G7n7=w1920-h1920-no,Không có,https://ho-chi-minh-ville.consulfrance.org/,10.7832875,106.6986484,Danh sách Lãnh sự quán tại TPHCM
Lãnh sự quán Bồ Đào Nha tại Tp. Hồ Chí Minh,"151 Nam Kỳ Khởi Nghĩa, Phường 6, Quận 3, Thành phố Hồ Chí Minh, Việt Nam",Tòa lãnh sự nước ngoài,+84 28 3930 9608,downloaded_images\2a5e83b09d0367be18b654cab98e0722.jpg,https://lh3.googleusercontent.com/gps-cs-s/AG0ilSxY1nSRhr9C7rPaklhovdCOC9Qjx7LWDhFqvp6NcMNu-lcsVOsiC31ciy1TRrbJmu8bSoGeO7_NJi_NPY4KsDzs0u6DbgHANALHOxaN6TKURcvxQ9toTTyh0o4ZqVHIP1JXktv2=w1920-h1920-no,Không có,http://www.portviet.org/,10.7818089,106.6922645,Danh sách Lãnh sự quán tại TPHCM
Tổng lãnh sự quán Trung Quốc,"175 Hai Bà Trưng, Phường 6, Quận 3, Thành phố Hồ Chí Minh, Việt Nam",Tòa lãnh sự nước ngoài,+84 28 3829 2459,downloaded_images\0707f2b61a60e8c2018b6d1d36b279e2.jpg,https://lh3.googleusercontent.com/gps-cs-s/AG0ilSzthI2yylJQpmolcyLP3R-SYJ6JOENBhoAeWOhtBQxtUFyxc8gQQ1LeVUkGPkXElcU5956Opk-86UiGuzF-PUDqvVz05INrxU79j2zcr1IfDPJdHT_jB9ycmKgRA0uwiRcgUCjKRQ=w1920-h1920-no,Không có,https://hochiminhcity.china-consulate.gov.cn/,10.7851161,106.6951675,Danh sách Lãnh sự quán tại TPHCM
Tổng Lãnh Sự Panama,"7A Lê Thánh Tôn, Bến Nghé, Quận 1, Thành phố Hồ Chí Minh 700000, Việt Nam",Đại sứ quán,+84 28 3825 0334,downloaded_images\ef6a0f142d725b4402ce20e979835834.jpg,https://lh3.googleusercontent.com/gps-cs-s/AG0ilSzdKgqq9MFMIAm4QWcvIHkkV8URL2ic9tnaJHqqj7IbVNdqV3a8KUfJsmWPKE9s9qDzRbeSNBAgclJx54kfXMY6SDNx5blY8ywUyAVqNm_EBZixpBEVECIPabfwOO23WHupEg3p=w1920-h1920-no,Không có,Không có,10.7816508,106.7058531,Danh sách Lãnh sự quán tại TPHCM
Consulate General of Canada in Ho Chi Minh City,"Street The Metropolitan, 235 Đồng Khởi, Bến Nghé, Quận 1, Thành phố Hồ Chí Minh 00084, Việt Nam",Văn phòng chính phủ,+84 28 3827 9899,downloaded_images\99a4258a0d729e1e3dbf3918999e44db.jpg,https://lh3.googleusercontent.com/gps-cs-s/AG0ilSzd9Al24LcVt6CLCVEjPdW9fULbHe3vaNllQwFH69GgIYHpUsNp0lsjzC92B9IA0M9m-4QiGnSBDrk-2CxeGZLsTsImLt143295DdQIi3PWenZXuHtUNpv5V96m-dcSsh9u5Ij-=w1920-h1920-no,Không có,https://www.international.gc.ca/country-pays/vietnam/ho_chi_minh_city-ho_chi_minh-ville.aspx?lang=eng,10.7784274,106.69992529999999,Danh sách Lãnh sự quán tại TPHCM
Tổng Lãnh sự quán Vương Quốc Campuchia,"41 Phùng Khắc Khoan, Đa Kao, Quận 1, Thành phố Hồ Chí Minh, Việt Nam",Tòa lãnh sự nước ngoài,+84 28 3829 2751,downloaded_images\15d36a8085e49ab4fd82a9803cc86f89.jpg,https://lh3.googleusercontent.com/gps-cs-s/AG0ilSyNrz-7CySTJSH1md5ckTckIBlgDoUy7M1rErXkFYNG-2RyX5DRcvBL61Y5hDqJMwCSICAtJbvBoICJ9g5kHMr_Lcj12rxq_-exMovD7juHboxQdEOA4ZkxkRe-l90g58rMuocrmg=w1920-h1920-no,Không có,Không có,10.7868741,106.6953217,Danh sách Lãnh sự quán tại TPHCM
Tổng Lãnh Sự Quán Anh,"25 Lê Duẩn, Bến Nghé, Quận 1, Thành phố Hồ Chí Minh, Việt Nam",Tòa lãnh sự nước ngoài,Không có,downloaded_images\c96874dbff556e3e7093a31b0f464479.jpg,https://streetviewpixels-pa.googleapis.com/v1/thumbnail?panoid=nUR222y4BLZ2nBzEoBxeGA&cb_client=search.gws-prod.gps&w=80&h=92&yaw=124.022224&pitch=0&thumbfov=100,Không có,Không có,10.783467499999999,106.7017394,Danh sách Lãnh sự quán tại TPHCM
Tổng Lãnh Sự Quán Hungary,"22 Phùng Khắc Khoan, Đa Kao, Quận 1, Thành phố Hồ Chí Minh 700000, Việt Nam",Tòa lãnh sự nước ngoài,+84 28 3622 1001,downloaded_images\63bc6fc29e9d49b6197320efc08426eb.jpg,https://lh3.googleusercontent.com/gps-cs-s/AG0ilSw3cwe0-bYMj2yWcvcqHhXJJRXHpQzc4ut7UUVoeE6cG8rfjJV1Vn9YpNOA-Sme3bCbDiuaOFWa3vwyMajJhYbBdN9isCvOP-aXSkUQMiPqvy0r6ZrjEA6ChV2M75wkFKlZKBpsNA=w1920-h1920-no,Không có,Không có,10.7855334,106.69715149999999,Danh sách Lãnh sự quán tại TPHCM
Lãnh Sự Quán Vương Quốc Na Uy,"Somerset Chancellor Court Ho Chi Minh City, 21 Nguyễn Thị Minh Khai, Bến Nghé, Quận 1, Thành phố Hồ Chí Minh 70000, Việt Nam",Tòa lãnh sự nước ngoài,+84 838 221 696,downloaded_images\c761cf03a8de600f4e26213fde6d11f4.jpg,https://lh3.googleusercontent.com/gps-cs-s/AG0ilSxYVhn23JCTWmp3vAcxNUmf56IGHaCQANlalxhoEcwaNwp_oIWmbAO97_esxCIJjbj3B9wDfoFqQYt-JwKuV5fKBB1tj7kihwU13UGPuPNtXc9cQ7oo50A3wLrKGqkB1gcBDNb-0w=w1920-h1920-no,Không có,http://www.mofahcm.gov.vn/vi/coquan_dd/nr050713161848/ns051201144015,10.7843729,106.69975009999999,Danh sách Lãnh sự quán tại TPHCM
Tổng Lãnh Sự Quán Hungary,"9-11 Tôn Đức Thắng, Bến Nghé, Quận 1, Thành phố Hồ Chí Minh 700000, Việt Nam",Tòa lãnh sự nước ngoài,+84 28 3622 1001,downloaded_images\73ce119accb39954a3d36fcb7fc58a32.jpg,https://lh3.googleusercontent.com/gps-cs-s/AG0ilSwSRJXl4gl0sbssv5KqaknQAsX65kZ2tdOjfzUV6LZLv1I9CqVn59qUi5kak8lmfi2_7WB3DFVkTs-AfYbjbzeP07oHTCV13eSiNaFCZHdyBz3Gvl6m7qmkQXWOKcnXK7SwlFuW7g=w1920-h1920-no,Không có,Không có,10.781797,106.706188,Danh sách Lãnh sự quán tại TPHCM
Bệnh viện Đa khoa Quốc tế Vinmec Central Park,"208 Nguyễn Hữu Cảnh, Vinhomes Tân Cảng, Bình Thạnh, Thành phố Hồ Chí Minh 700000, Việt Nam",Bệnh viện đa khoa,+84 28 3622 1166,downloaded_images\a63b976289a13a89e73353b1845545dd.jpg,https://lh3.googleusercontent.com/p/AF1QipPpsWyD2gkMktwLEty1zJjTuTkWHkpToRU0itKo=w1920-h1920-no,Không có,https://www.vinmec.com/vie/co-so-y-te/benh-vien-da-khoa-quoc-te-vinmec-central-park-10890-vi-hoi-suc-cap-cuu,10.7939771,106.72034819999999,Bệnh viện quốc tế tại TPHCM
Bệnh Viện Đa Khoa Quốc Tế Nam Sài Gòn,"88 Đường Số 8, Khu dân cư Trung Sơn, Bình Chánh, Thành phố Hồ Chí Minh, Việt Nam",Bệnh viện đa khoa,+84 1800 6767,downloaded_images\fada6c531c55c4450f9eec93abcc8a71.jpg,https://lh3.googleusercontent.com/p/AF1QipPbSxA0z7jd0FbR8OQoncsSopFNtW6_HXe5QpRG=w1920-h1920-no,Không có,https://benhviennamsaigon.com/,10.735866099999999,106.69086709999999,Bệnh viện quốc tế tại TPHCM
Bệnh Viện Quốc Tế Mỹ (AIH),"199 Nguyễn Hoàng, Phường Bình Trưng Tây, Thủ Đức, Thành phố Hồ Chí Minh, Việt Nam",Bệnh viện,+84 28 3910 9999,downloaded_images\7e90a6531f6d90ba4438b026fe3acada.jpg,https://lh3.googleusercontent.com/gps-cs-s/AG0ilSzGRisogDn-7Yc8L3z7leAfRDiSXHCX80vpSJYmROH6h7D05QXSK_stMEINJtKi_Q0IRUReuOIlT2zXjOsmNYF_cJFx-Lx73F-ursUIXpRjSg0E1Kyqm-euorbUtjGjUyin-h0=w1920-h1920-no,Không có,http://aih.com.vn/,10.793733699999999,106.7464567,Bệnh viện quốc tế tại TPHCM
Bệnh viện Quốc tế City,"3 Đường Số 17A, Bình Trị Đông B, Bình Tân, Thành phố Hồ Chí Minh 700000, Việt Nam",Bệnh viện đa khoa,+84 1900 8146,downloaded_images\4d3257526badee97070f997cc0a001c2.jpg,https://lh3.googleusercontent.com/p/AF1QipPj6Ygs46jmUXWem1gg3-WTxsH3jKpyZjUIrYDj=w1920-h1920-no,Không có,https://cih.com.vn/,10.7410166,106.60912499999999,Bệnh viện quốc tế tại TPHCM
Bệnh viện Chuyên Khoa Ngoại Thần Kinh Quốc Tế,"65A Đ. Lũy Bán Bích, Tân Thới Hoà, Tân Phú, Thành phố Hồ Chí Minh, Việt Nam",Bệnh viện chuyên khoa,+84 28 3961 6977,downloaded_images\cb0c7ffe510cf4c74826c642cc4d35f7.jpg,https://lh3.googleusercontent.com/gps-cs-s/AG0ilSx8Xdb3QKORfL5AQ2digcsvV4E28oLVGEIHHUq17pnCLMpdKkWCqBVYBFyoiyg0wGR2De74hAvG1Z1gRvlAtKcBxg4nj9g1X8wwBjkKXIugsJvhlzIrt8eLQA_ir8qsWy-j27t3zw=w1920-h1920-no,Không có,http://www.bvngoaithankinhqt.org.vn/,10.7612331,106.63213739999999,Bệnh viện quốc tế tại TPHCM
Bệnh Viện Quốc Tế DNA,"1015 Trần Hưng Đạo, Phường An Đông, Quận 5, Thành phố Hồ Chí Minh 700000, Việt Nam",Bệnh viện,+84 1900 2840,downloaded_images\acabcd38feb2601720aab43aa2e4b8ae.jpg,https://lh3.googleusercontent.com/p/AF1QipP5uzPoPZZsB6ltFLhaRZAlHGKv4tQLrHzFbqrH=w1920-h1920-no,Không có,https://dnahospital.vn/,10.7535654,106.67552409999999,Bệnh viện quốc tế tại TPHCM
Bệnh viện Quốc tế Thảo Điền,"95/3 Thảo Điền, Thủ Đức, Thành phố Hồ Chí Minh 700000, Việt Nam",Bệnh viện,+84 901 459 969,downloaded_images\7903a5328ae513fb3824e315e6db22d8.jpg,https://lh3.googleusercontent.com/p/AF1QipOs-cwz_S0qUhjTQdYmAKmDANgnRkggDVy_qa5R=w1920-h1920-no,Không có,http://benhvienthaodien.com.vn/,10.8075735,106.7337172,Bệnh viện quốc tế tại TPHCM
Bệnh viện Quốc tế Minh Anh,"36 Đường số 1B, Bình Trị Đông B, Bình Tân, Thành phố Hồ Chí Minh, Việt Nam",Bệnh viện tư nhân,Không có,downloaded_images\56acb0597898c68cf653884910d49b9e.jpg,https://lh3.googleusercontent.com/gps-cs-s/AG0ilSxAp8KvrS6KAmqHmu1JszMCf60kiBGfTyoKRT0sMs2FRBxEczk2mcLn5q1T0EPvxDSnfVfiTu-NKaVM2cjDFBBZaQbxwvc1O6knpIVtXX1S9lNXKtPr9gVpkF_ZH3EAL2G4N36nhg=w1920-h1920-no,Không có,http://www.minhanhhospital.com.vn/,10.747508999999999,106.6145533,Bệnh viện quốc tế tại TPHCM
Bệnh Viện Đa Khoa Quốc Ánh,"104 - 110 Đường số 54, KDC, Bình Tân, Thành phố Hồ Chí Minh, Việt Nam",Bệnh viện,+84 28 3636 4144,downloaded_images\caf273fa58bd7d462176d71d8f1a8b0b.jpg,https://lh3.googleusercontent.com/p/AF1QipOJUQd3j4Y3_3CdZ-jmT1RWizOQqdD1huAbek2E=w1920-h1920-no,Không có,http://www.benhvienquocanh.com.vn/,10.753473399999999,106.5931056,Bệnh viện quốc tế tại TPHCM
Bệnh viện Mắt Quốc tế Việt - Nga - TP. HCM,"Đ. 3 Tháng 2/1 Phường Vườn Lài, Phường 10, Quận 10, Thành phố Hồ Chí Minh 70000, Việt Nam",Bệnh viện chuyên khoa,+84 931 888 801,downloaded_images\e7b6dfca0c7b170fc9cb32f61f60daea.jpg,https://lh3.googleusercontent.com/p/AF1QipMUvXYjNt_dPTv-q3rFQtLwdYVRY4Rb8iXxbqak=w1920-h1920-no,Không có,https://hcm.matvietnga.com/,10.7774793,106.6814524,Bệnh viện quốc tế tại TPHCM
Phòng khám Quốc tế Victoria Healthcare,"135A Đ. Nguyễn Văn Trỗi, Phường 11, Phú Nhuận, Thành phố Hồ Chí Minh 700000, Việt Nam",Phòng khám,+84 28 3910 4545,downloaded_images\e0fb6556ae78749ee7d06c6687b95313.jpg,https://lh3.googleusercontent.com/gps-cs-s/AG0ilSySZPSMikhrmBwqaN-aQW9VMyx22da5C5WtnkCrmYiKsunTPa-fAwa9_AQmjOuTWHeEtFqDhMoNIqDXKhLJzrhLe6T5pE93SPvaiUcSznpHpLQp5s92n_LONzJO4__YPB-J7W4=w1920-h1920-no,Không có,https://www.victoriavn.com/,10.7942381,106.6773309,Bệnh viện quốc tế tại TPHCM
Phòng khám quốc tế Victoria Healthcare,"20-20Bis-22 Đinh Tiên Hoàng, Đa Kao, Quận 1, Thành phố Hồ Chí Minh 700000, Việt Nam",Phòng khám,+84 28 3910 4545,downloaded_images\8582f1110f8bebb7e51d91e9c8f557d9.jpg,https://lh3.googleusercontent.com/gps-cs-s/AG0ilSw55h06jz7HIjlXBbkI3RvLMsVHgLMOC-XM7d5cXdYJ6sv5JK-DDxXOnpbGzuecDTjHThf2lpCJa68bpCIXYUU0JOFoqKBE_O9hfPPre6J3NGJlgRYPo-_BuMHYQvU_0KDsvLo=w1920-h1920-no,Không có,https://www.victoriavn.com/,10.7890435,106.6991554,Bệnh viện quốc tế tại TPHCM
Bệnh viện Quốc tế Chấn thương chỉnh hình Sài Gòn (SAIGON-ITO),"305 Đ. Lê Văn Sỹ, Phường 1, Tân Bình, Thành phố Hồ Chí Minh, Việt Nam",Bệnh viện chuyên khoa,+84 28 3991 2030,downloaded_images\1a9d49a93451b004b9bf22bf302bc82e.jpg,https://lh3.googleusercontent.com/gps-cs-s/AG0ilSwgGF0d6E_cA1MOfcwYk_juE8qx-9rT9ljZ0SessC4b_fRTgbMs5-Kzjj8FzrBnP-2MmAbINViV7rSEN8JEt320S6PxmawSp_-8nT4qCZQJAFClSlhApInZRcWrBsbjFFvjZQJQ=w1920-h1920-no,Không có,http://saigonitohospital.com/,10.7948684,106.6671137,Bệnh viện quốc tế tại TPHCM
Sai Gon International Clinics,"Đ. Trịnh Văn Cấn, Phường Bến Thành, Quận 1, Thành phố Hồ Chí Minh, Việt Nam",Phòng khám,+84 28 3821 3456,downloaded_images\e43901d868d200b5ed4dfe838ba3ab41.jpg,https://lh3.googleusercontent.com/p/AF1QipP5otIJ0Lw37EM_vjplEFPtZwyInuNNX2kdo1G1=w1920-h1920-no,Không có,https://bvquoctesg.com/phong-kham-da-khoa-quan-1/,10.7672671,106.6966216,Bệnh viện quốc tế tại TPHCM
Phòng khám đa khoa Quốc tế TIMEC,"4449 Nguyễn Cửu Phú, Tân Tạo A, Bình Tân, Thành phố Hồ Chí Minh, Việt Nam",Bệnh viện,+84 879 115 115,downloaded_images\d0dfed6f2ce2a040940558e01d91063f.jpg,https://lh3.googleusercontent.com/gps-cs-s/AG0ilSy2J4BeHrVVqVNzR2BBU-cJ8fmk7rcM2rIHxeCshGt2CgTvbkhTSXWO9TvdoriEv58nJbeXDA6J7rWRdF2bPX7_OhzNTQ73MoWhEp9wrNjU27ZIAamB3il-phWahpChgu4x1MAB=w1920-h1920-no,Không có,http://timec.vn/,10.7547242,106.5837627,Bệnh viện quốc tế tại TPHCM
Công Ty TNHH Bệnh viện Quốc tế Queen,"118 Bành Văn Trân, Phường 7, Tân Bình, Thành phố Hồ Chí Minh 700000, Việt Nam",Bệnh viện đa khoa,+84 28 3865 2225,downloaded_images\4398239c1dd4de61bd6aa4fd1ef497be.jpg,https://lh3.googleusercontent.com/p/AF1QipN8LXDlIQiPD_4DCi2W5MTUk2waMFkjm7ugGatU=w1920-h1920-no,Không có,https://queenihc.com/,10.789605,106.656719,Bệnh viện quốc tế tại TPHCM
Bệnh Viện JW Hàn Quốc,"50 Tôn Thất Tùng, Phường Phạm Ngũ Lão, Quận 1, Thành phố Hồ Chí Minh 700000, Việt Nam",Bệnh viện chuyên khoa,+84 968 681 111,downloaded_images\1fae5346f3c659955d4bc3988731f0ae.jpg,https://lh3.googleusercontent.com/p/AF1QipPQpQXlAUrV72ow-q6bU9oIGsXgMHJ2uEuIpXvB=w1920-h1920-no,Không có,https://benhvienjw.vn/,10.7695502,106.6891521,Bệnh viện quốc tế tại TPHCM
Cổng bệnh viện ngoại thần kinh quốc tế,"Công Ty Dệt May, 40 Đ. Lũy Bán Bích, Tân Thới Hoà, Tân Phú, Thành phố Hồ Chí Minh, Việt Nam",Bệnh viện,Không có,downloaded_images\d20d29ebed0c7c9f23e9ca24579e455e.jpg,https://lh3.googleusercontent.com/gps-cs-s/AG0ilSxbVERzrRFbwd8wemY-8lnz3J0D9mzJYu0LHGTDKfgiNiD94BnyYJ2CVuENnxBFDyVxigpgImVpxn_YmUQH0C-ric_Wqg1H2LYHQqDKY3QTxWrVBPxK71cSLmZsB4hJvyq7MWKIcLgJEjOG=w1920-h1920-no,Không có,Không có,10.761332,106.63252399999999,Bệnh viện quốc tế tại TPHCM
Bệnh viện phụ sản Quốc Tế Sài Gòn,"63 Bùi Thị Xuân, Phường Phạm Ngũ Lão, Quận 1, Thành phố Hồ Chí Minh 700000, Việt Nam",Bệnh viện phụ sản,+84 899 909 268,downloaded_images\f7dbdb26275e153b720c7e370785cfc1.jpg,https://lh3.googleusercontent.com/p/AF1QipNHiuWP7s3BBj68jehR_F7LYZaa26_frAvm07zV=w1920-h1920-no,Không có,https://www.sihospital.com.vn/,10.7697542,106.68860289999999,Bệnh viện quốc tế tại TPHCM
Phòng Khám Đa Khoa Quốc Tế Sài Gòn (SIG) - Quận 7,"441 Đ. Lê Văn Lương, Tân Hưng, Quận 7, Thành phố Hồ Chí Minh 700000, Việt Nam",Trung tâm y tế,+84 28 3821 3456,downloaded_images\c869a05ce910c7c52761b8eb18b60243.jpg,https://lh3.googleusercontent.com/p/AF1QipMR_32jIP8k1LXdMuJBiaZ3ABnRiPn_5ZRNoe43=w1920-h1920-no,Không có,https://bvquoctesg.com/phong-kham-da-khoa-quan-7/,10.737843999999999,106.7033359,Bệnh viện quốc tế tại TPHCM
Bệnh Viện Công An Thành Phố,"117 Phó Cơ Điều, Phường 7, Quận 11, Thành phố Hồ Chí Minh, Việt Nam",Bệnh viện,Không có,downloaded_images\9ebb6714aa4881f529f6dcda73ac88ba.jpg,https://streetviewpixels-pa.googleapis.com/v1/thumbnail?panoid=w2LSOYbjlKkO2CkkTSO7JQ&cb_client=search.gws-prod.gps&w=80&h=92&yaw=258.54053&pitch=0&thumbfov=100,Không có,Không có,10.758939699999999,106.6569117,Bệnh viện công tại TPHCM
Bệnh Viện Công An Tp. Hồ Chí Minh - Khoa Y Học Cổ Truyền,"134 Đ. Hải Thượng Lãn Ông, Phường 11, Quận 5, Thành phố Hồ Chí Minh, Việt Nam",Bệnh viện,+84 28 3854 9734,downloaded_images\0cdd80a8597ac368f0789ab480bebd34.jpg,https://lh3.googleusercontent.com/gps-cs-s/AG0ilSz9XpKOZkd5aGqojABT0osdbbsEqlcdeuvXUIsMxtBI8e0tpt3Sy3YZtwkDaoNKzRY3_s_F97KKqAsqsbRmaK2M6gHFTdBSGifAXGTt56A6UnFI4LosEE0HTTksI-zcw6Poe-fpPlV7fTCD=w1920-h1920-no,Không có,Không có,10.751006199999999,106.6605953,Bệnh viện công tại TPHCM
Phòng Khám Đa Khoa Thành Công,"36 ĐƯỜNG CN 4, Tây Thạnh, Tân Phú, Thành phố Hồ Chí Minh 700000, Việt Nam",Phòng khám,+84 28 3815 9435,downloaded_images\1cd66c623f5b7fffb8efaee273f7eff4.jpg,https://lh3.googleusercontent.com/gps-cs-s/AG0ilSzw2gpFz7J3KJh-yIKZZnZvlTzCuqpsPrhtFhC88kyDwhHXPXOEmxnXNtPMMJmbEObCxcYjl_yojiDpPwn8pCzQXz4HEsIe-CKB8cHXAxGDukf9jM5D1KRqaA9yT8lwXb7Ri64n8A=w1920-h1920-no,Không có,https://www.thanhcongclinic.com/,10.819176599999999,106.6258773,Bệnh viện công tại TPHCM
Bệnh viện Nhân dân Gia Định,"1 Nơ Trang Long, Phường 7, Bình Thạnh, Thành phố Hồ Chí Minh, Việt Nam",Bệnh viện,+84 28 3841 2692,downloaded_images\9a40ed64d7561fd4d085ab7debcdd611.jpg,https://lh3.googleusercontent.com/gps-cs-s/AG0ilSzjxIW_i7Jappl-mUu5y-bQ28Lelbt-4laYHJmyJrWQ5TVAmJellnOgNMhEqkYRmgvS_VzCzVD_0ukubh5Rpx3bG_qLZzI43IlOmzFVcy0MoqLD0YydaF0MVclIjA5jd-RDQ8fU=w1920-h1920-no,Không có,http://bvndgiadinh.org.vn/,10.803747099999999,106.69413879999999,Bệnh viện công tại TPHCM
Bệnh viện Bình Thạnh,"132 Đ. Lê Văn Duyệt, Phường 1, Bình Thạnh, Thành phố Hồ Chí Minh, Việt Nam",Bệnh viện đa khoa,+84 28 3510 8966,downloaded_images\af353ef110059687c22ae6c84ca1102e.jpg,https://lh3.googleusercontent.com/gps-cs-s/AG0ilSwtT90FcwLJqn1pGx-IkgA7CUqacJC_ubYUhOG5zrp_xIpDcpVBw4zuUlEu7cmmtj4zkrEzw2I-t0oRJ_V9OaI81_nA0SrJY9MWQnhQkoKLOwQ_6wYBMrcGgjvaDwnoMWKT1hN3=w1920-h1920-no,Không có,https://bvbinhthanh.org.vn/khoa,10.7980298,106.6966605,Bệnh viện công tại TPHCM
Bệnh viện 30-4,"9 Sư Vạn Hạnh, Phường 9, Quận 5, Thành phố Hồ Chí Minh 72712, Việt Nam",Bệnh viện chính phủ,Không có,downloaded_images\5a2eb36191e6d9a3720352abf7fdcbea.jpg,https://lh3.googleusercontent.com/gps-cs-s/AG0ilSyBIlw6wb6n_oHGsRmYy0dteQPzELJVocLfd24yJuBXTqscNMiSqoeG1R_kdhhKLEnsj7rUYcO64DcqQbP1i0H9sC-aEq39ds53YoQbW13dpLSuP0H91r7ySNp1TciDZehBft0=w1920-h1920-no,Không có,http://benhvien304.com.vn/,10.7591033,106.6730315,Bệnh viện công tại TPHCM
Bệnh viện Nhi Đồng Thành Phố,"15 Đ. Võ Trần Chí, Tân Kiên, Bình Chánh, Thành phố Hồ Chí Minh, Việt Nam",Bệnh viện nhi,+84 28 2253 6688,downloaded_images\0250c40e9078b7a0e9e2102f924108af.jpg,https://lh3.googleusercontent.com/p/AF1QipPQaU2h1pO4sUZ4fa-VdKS7Xp_Zu9P7j8J8Ij-3=w1920-h1920-no,Không có,http://bvndtp.org.vn/,10.7096251,106.5738758,Bệnh viện công tại TPHCM
Bệnh viện Đa khoa Bình Tân,"QJ73+86P, 809 HL2, Bình Trị Đông A, Bình Tân, Thành phố Hồ Chí Minh 100000, Việt Nam",Bệnh viện đa khoa,+84 28 3754 2955,downloaded_images\bffc5731e176fd7923682a22c1aac052.jpg,https://lh3.googleusercontent.com/gps-cs-s/AG0ilSw-RG7-IwHXUmcQc3P-QKfrz8RBf20DVCjYjDXymb2qO9yi2wcggEB97mTRXSF6ROe6Dt990uC3ekXaYDY34Nmrbkv1t18eAGRVI1BFnOVRb8l-7ZO6APx9IIKmryAm8PgFKqTk=w1920-h1920-no,Không có,http://www.bvbinhtan.vn/,10.7643601,106.6032103,Bệnh viện công tại TPHCM
Bệnh viện Trưng Vương,"266 Đ. Lý Thường Kiệt, Phường Diên Hồng, Quận 10, Thành phố Hồ Chí Minh 700000, Việt Nam",Bệnh viện đa khoa,+84 28 3865 6744,downloaded_images\a9d12f787d53ce2b54839ce0b30dea52.jpg,https://lh3.googleusercontent.com/gps-cs-s/AG0ilSwg4Vej_0bYfapcfiJSwNn0-YgZiFJOUZUtjSwueAL2F1RXG98gvsVL9cSWdVG78emFQBb9U8cuDhT38ay2Eb5LiTyGweYrXlYsh3sBMoWsolYEIk-Ur0grPgY5Z0RBAr0glcQ9=w1920-h1920-no,Không có,http://bvtrungvuong.vn/,10.770505499999999,106.6594484,Bệnh viện công tại TPHCM
Bệnh viện Đa khoa Sài Gòn,"125 Lê Lợi, Phường Bến Thành, Quận 1, Thành phố Hồ Chí Minh 700000, Việt Nam",Bệnh viện,+84 28 3829 1711,downloaded_images\bf94fafb4d1e5c9224d61c88de108b69.jpg,https://lh3.googleusercontent.com/gps-cs-s/AG0ilSyNS9ugOpB6dyessxZJdFvyuU8oH7przRjy1QgTVovJEAjFU0GUl8qWqSBUCUtLdB_1MH6jv7pmtSH8EFF8SmWfRw6Ma-MX8IaAmA8dC1yHqFZeUeX-fLdbMLP2N1jRfhtmPfFP=w1920-h1920-no,Không có,http://benhviendakhoasaigon.vn/,10.7721693,106.6993921,Bệnh viện công tại TPHCM
Viện Y tế Công cộng TP. HCM,"159 Đ. Hưng Phú, Phường Hưng Phú, Quận 8, Thành phố Hồ Chí Minh 700000, Việt Nam",Trung tâm y tế công cộng,+84 28 3855 9503,downloaded_images\7b7b0df4b8b122a2725dea68a2a5fd9f.jpg,https://lh3.googleusercontent.com/gps-cs-s/AG0ilSzqc3Dnp0Z1Gsn67d8cyARx9TGuf1nMgAC1XKp397O5CY_Y9Wovim4NlxZmf8ZKcHacUjHSn9th-41ztdJJXkEfSgsv6O6zZ-u0fv4-Xl1zZs4j_c596UYoVMPtGQd9fHsaip6L=w1920-h1920-no,Không có,https://iphhcm.org/,10.749882699999999,106.67866959999999,Bệnh viện công tại TPHCM
Bệnh viện Quận 8,"82 Cao Lỗ, Phường 4, Quận 8, Thành phố Hồ Chí Minh, Việt Nam",Bệnh viện đa khoa,+84 28 3850 6130,downloaded_images\022694325cca7e9191fc6508368375ab.jpg,https://lh3.googleusercontent.com/gps-cs-s/AG0ilSz0iIiEPeu2JzdrCRMMS97uSVKd8WeU7kNuR-1snYqpGxDrDgOWl1AwsCe4Qs37LK62qq0XV-FFzCmkCul8Zl8OHPfMf0J402f2SSqUX6Sjdt5YS7_s542VDDDuLpkZnGR7KyVkKA=w1920-h1920-no,Không có,http://bvquan8.medinet.gov.vn/Defaultmobile.aspx#,10.7416667,106.67638889999999,Bệnh viện công tại TPHCM
Bệnh viện Quận 7,"101 Đ. Nguyễn Thị Thập, Phường Tân Mỹ, Quận 7, Thành phố Hồ Chí Minh 00700, Việt Nam",Bệnh viện đa khoa,+84 28 3873 3420,downloaded_images\bd08f06f1dd1fbb28cf1d1f046731936.jpg,https://lh3.googleusercontent.com/p/AF1QipMw5Q6AYfU5uZXi5gyAE8vV3NqTLr2nMmtzy3hp=w1920-h1920-no,Không có,http://www.benhvienquan7.com.vn/,10.7373313,106.7241657,Bệnh viện công tại TPHCM
Bệnh viện Phạm Ngọc Thạch,"120 Đ. Hồng Bàng, Phường 12, Quận 5, Thành phố Hồ Chí Minh, Việt Nam",Bệnh viện,+84 28 3855 0207,downloaded_images\3549bad9cfd477862ed70f46d8a87ac0.jpg,https://lh3.googleusercontent.com/gps-cs-s/AG0ilSz5Lupi13sP04zohTnBO1LO2gat4qnT8biAYKWkmgUyMPrBNBkCJ3i4q9rh41CoOHNiR3KNh-dgscyZ7ZpflkKC3v8GLFnVEc4uQ9oh9gEa96_YTz-mgv6tbhQ3re2vHRiKVzE3_w=w1920-h1920-no,Không có,http://bvpnt.org.vn/,10.7570129,106.66597039999999,Bệnh viện công tại TPHCM
Bệnh viện Quận Phú Nhuận,"274 Nguyễn Trọng Tuyển, Phường 8, Phú Nhuận, Thành phố Hồ Chí Minh, Việt Nam",Bệnh viện,+84 28 3844 3910,downloaded_images\a439f516648fde70725fe5c37c8c89e0.jpg,https://lh3.googleusercontent.com/gps-cs-s/AG0ilSyl-jDwvBMNzoWUKgnQY7DyKgL8LVLiJchMWeonkMjrSqBLNrsBCj_Mw5NBmmMZd2cjMEeOivAVcAoC7hWoEzpWqglEfmoq7ZqoV6Fk1rCOzEkUl4HszO-lD6qxb1jay2hFV85Ce8N8-oFt=w1920-h1920-no,Không có,https://bvquanphunhuan.medinet.gov.vn/,10.798107,106.67182229999999,Bệnh viện công tại TPHCM
Bệnh viện Bình Dân,"371 Điện Biên Phủ, Phường 4, Quận 3, Thành phố Hồ Chí Minh 700000, Việt Nam",Bệnh viện,+84 28 3839 4747,downloaded_images\101e65586722182aa90fed98b5ac47cd.jpg,https://lh3.googleusercontent.com/p/AF1QipNC_fsBYq1ZfMFnJDeCAZb_asURy1WF5Kh4pCv-=w1920-h1920-no,Không có,http://www.bvbinhdan.com.vn/,10.774024599999999,106.6812751,Bệnh viện công tại TPHCM
Phòng Công tác xã hội - Bệnh viện Chợ Rẫy,"201B Nguyễn Chí Thanh, Phường 12, Quận 5, Thành phố Hồ Chí Minh, Việt Nam",Bệnh viện,+84 28 3855 2486,downloaded_images\dde4fcc34f1f339c3ddd219f2a459a59.jpg,https://lh3.googleusercontent.com/gps-cs-s/AG0ilSwZLm--AqXKz3bBf43akHuwR_R0yCFqyWFqyIz0FBrRzfmdNUErTTrImaJ3uvHD50QG-07Mx30CJnNHJU1jYf9kw_nHntLSVD2ZD5GyGOJZiod1JDw3nUVVmOTqd-MPLJmVLqgH=w1920-h1920-no,Không có,https://www.facebook.com/phongcongtacxahoibenhvienchoray/,10.757167899999999,106.65907519999999,Bệnh viện công tại TPHCM
Bệnh Viện Đa Khoa Tân Bình,"605 Đ. Hoàng Văn Thụ, Phường Tân, sơn nhất, Thành phố Hồ Chí Minh 70000, Việt Nam",Bệnh viện,Không có,downloaded_images\5cdbf65a5f6d0c8070dc2d9f53315710.jpg,https://lh3.googleusercontent.com/gps-cs-s/AG0ilSwSibKdKDqZy9LUbRCVz8_8Ujora6uYtFMoET5rm0HVRM0ZdHRmTY8-uNItQtJjRVe1WF_KbdiI9-NRM1G2FLVZtdzcYMMLwCYy6Kfyijklna0Mm2gmueHK0abr4j8TzvEVpmnJBw=w1920-h1920-no,Không có,https://bvtb.org.vn/,10.7945055,106.65498559999999,Bệnh viện công tại TPHCM
Bệnh viện Hùng Vương,"9 Đ. Lý Thường Kiệt, Phường 12, Quận 5, Thành phố Hồ Chí Minh, Việt Nam",Bệnh viện chuyên khoa,+84 28 3855 8532,downloaded_images\91a2757b8ca69f202046e90e1dc42af7.jpg,https://lh3.googleusercontent.com/gps-cs-s/AG0ilSxHVCN0MWck73Tw_HIyjcymBsU3cwb3ymyROEGqsNV4WHlyTgxmF5RPyMjuFZe8SlzjYfGkMzlY_PY-34Ejt14ddRr3bDwcIgiC_yt7Voi6vGPjZYnIiX_pfyutXPoZp0DJ7quGOw=w1920-h1920-no,Không có,http://www.bvhungvuong.vn/,10.7565723,106.66182739999999,Bệnh viện công tại TPHCM
Công an Quận 1,"73 Yersin, Phường Cầu Ông Lãnh, Quận 1, Thành phố Hồ Chí Minh, Việt Nam",['Sở cảnh sát'],+84 28 3829 7643,downloaded_images\e8b72f88e476b419de281ef137e304cc.jpg,https://lh3.googleusercontent.com/gps-cs-s/AG0ilSwR8IJG5GizhYj1h3LaB5LVqnv2r2vKk4OtqX_SR42PiaYcZWawDw2HXvpMestIKkFuZj_3-GVF_bIUnZB_UP4Z9RnFGOxG_NIuX2229YO3oqJeFAsCGVRwTE6DsYjyPpcGkEuvKQ=w1920-h1920-no,Không có,Không có,10.7669781,106.69720439999999,Công an Quận 1
UBND Phường Sài Gòn,"45-47 Lê Duẩn, Phường Sài Gòn, Quận 1, Thành phố Hồ Chí Minh, Việt Nam",Văn phòng chính quyền địa phương,+84 28 3823 4223,downloaded_images\f6aa74814f7454f21ce6587bacd5e7d2.jpg,https://lh3.googleusercontent.com/gps-cs-s/AG0ilSwp74QyUKJdTB6mKKhjJE8DI_Ud-L55-qcPJUGNgHc4DZ2hzi_UNiyjUHFM2SwTW4K82wxOcT1PgDlHXf7hUdKBXwBoh1Xq4NOa-o7LR-SeVBuiTIT_iV1SignrIwLmj80VrrM=w1920-h1920-no,Không có,http://phuongsaigon.gov.vn/,10.7805959,106.699416,Ủy ban nhân dân Quận 1
UBND Phường Bến Thành,"92 Nguyễn Trãi, Phường Phạm Ngũ Lão, Quận 1, Thành phố Hồ Chí Minh, Việt Nam",Văn phòng chính quyền địa phương,Không có,downloaded_images\69187fe0c9462ff67150a164b77cd64a.jpg,https://lh3.googleusercontent.com/gps-cs-s/AG0ilSxAdv1T4jzTNK_M9VzcnShmpxuxc551e0ryQKemAT5ZCFHcRU5Hg5IJUaOAQvKWqTi3loGWlWvoF56V6WkQ1z4xYyf444-GAMsSlu6fECVZQcAy6Fr-kX2U7GzfKOJEL4tWD9u8_Q=w1920-h1920-no,Không có,Không có,10.7701847,106.69129699999999,Ủy ban nhân dân Quận 1
Trung Tâm Y Tế Quận 1,"2 Đặng Tất, Phường Tân Định, Quận 1, Thành phố Hồ Chí Minh 70000, Việt Nam",['Trung tâm y tế'],+84 28 3931 1314,downloaded_images\70b8fd71f7b00c4e2f3e27ee8b356cf6.jpg,https://lh3.googleusercontent.com/gps-cs-s/AG0ilSw1juMf1KzoNo1VcGDjiP1A_4YQbh38aQy6R0opjCYud7xP2Oh7g7xK20JXM-NgXa5xCDiaTrnUe6dPF3JzYMuwjGayypp2mJ6pTDTt9daPPDPPm8zVyd3zVQTppjUXiF7eWSQABA=w1920-h1920-no,Không có,/url?q=http://trungtamytequan1.medinet.gov.vn/&opi=79508299&sa=U&ved=0ahUKEwihofDEyaqRAxVKG9AFHXwNE-sQ61gIFygS&usg=AOvVaw3nOVQ-s94XeyWz5rKdN35e,10.7931338,106.6894559,Trung tâm y tế Quận 1
Bệnh viện Tân Định - Cơ sở 2,"237 Trần Hưng Đạo, Phường Cô Giang, Quận 1, Thành phố Hồ Chí Minh, Việt Nam",Bệnh viện,+84 28 3920 7527,downloaded_images\723b2b0a0e0e01ad2737377d18f3753f.jpg,https://lh3.googleusercontent.com/gps-cs-s/AG0ilSwQLfc-jmRFV1voKrk4PamgBwwfMJYAfWp3Tw8hs64s4IUM2myODuzwhzXyf_ViqJZuM3Yoq-8Aa5OEBsA_IUVVEyU9TJiZ98eZldY_8d_vHawEA7IVW-XyI2noEh8tk2SWxdEGCg=w1920-h1920-no,Không có,http://cs1.bvq1.vn/bvq1/,10.765051,106.693235,Bệnh viện Quận 1
Bệnh viện Đa khoa Tân Định,"338 Hai Bà Trưng, Phường Tân Định, Quận 1, Thành phố Hồ Chí Minh, Việt Nam",Bệnh viện,+84 28 3820 0880,downloaded_images\910eee853dd64ef649cc825063792a46.jpg,https://lh3.googleusercontent.com/gps-cs-s/AG0ilSz8mwiBjmpFqI9iUS3nxtm8-ZsnTzfF8_THOlT4fpKDiDA83uk9sFXrIirDPwA5s3QNXF1hYqgmFlh_lW-1IGT8ZnoCBWS-eJ56JiW7xCBCocuXkrWFWdQON_PdEbMgl7zy02ynJQ=w1920-h1920-no,Không có,http://cs1.bvq1.vn/bvq1/,10.7901324,106.6895943,Bệnh viện Quận 1
Đội CSGT Quận 1,"82 Nguyễn Thái Học, Phường Cầu Ông Lãnh, Quận 1, Thành phố Hồ Chí Minh, Việt Nam",Trạm cảnh sát giao thông,Không có,downloaded_images\5657fbaffa1df4c6e167103a65a1c8be.jpg,https://lh3.googleusercontent.com/gps-cs-s/AG0ilSyWqz5KxfOloTHSVkBpgtuodq9Sc9ihllXXk1XxwI26bonSklfNQvjyBvDOL6RM_YfMq9t4CAHZTpa9jPyyxkiOMXZOhq3ukGyzPfv4PzOIaxalDyU2WYi36w1titEflozD1If99Q=w1920-h1920-no,Không có,Không có,10.7669087,106.69626869999999,Đội Cảnh sát giao thông Quận 1
Đội CSGT - Công An Quận 1,"21 Đ. Trịnh Văn Cấn, Phường Cầu Ông Lãnh, Quận 1, Thành phố Hồ Chí Minh, Việt Nam",Sở cảnh sát,Không có,Không có,,Không có,Không có,10.767190099999999,106.6964699,Đội Cảnh sát giao thông Quận 1
Đội CSGT Bến Thành,"52 Nguyễn Khắc Nhu, Phường Cô Giang, Quận 1, Thành phố Hồ Chí Minh, Việt Nam",Trạm cảnh sát giao thông,+84 28 3836 7412,Không có,,Không có,Không có,10.7641946,106.693011,Đội Cảnh sát giao thông Quận 1
Đội PCCC & CNCH Quận 1,"QM6W+F4V, Phường Cô Giang, Quận 1, Thành phố Hồ Chí Minh, Việt Nam",Trạm cứu hỏa,Không có,downloaded_images\88f3885bfb4f00f76164112b61cb38a1.jpg,https://lh3.googleusercontent.com/gps-cs-s/AG0ilSy-4-GqL7IOOs-qd1Rv8YWLTRBwxJaQemTsKU6D-E0Ky0D3GN8-dlOA0xBLLuBwNZm2dgAsuN4xbMuJ6Oc4DTrOuh2EvIjfiC1cN3Jf7Cn64uXOjmkp3ilyIRHHbrmtENKCs64-zlKaS9op=w1920-h1920-no,Không có,Không có,10.7612448,106.6953063,Đội Cảnh sát PCCC và CNCH Quận 1
Phòng Cảnh sát Phòng cháy Chữa cháy và Cứu nạn Cứu hộ TP. Hồ Chí Minh,"258 Trần Hưng Đạo, Phường Nguyễn Cư Trinh, Quận 1, Thành phố Hồ Chí Minh 700000, Việt Nam",Trạm cứu hỏa,+84 28 3920 0996,downloaded_images\4fd5881dcfcfa52155277d9703d9d6f8.jpg,https://lh3.googleusercontent.com/gps-cs-s/AG0ilSy-ILT_ja06r5oMBj743roUzbpPAj9WXJD2nVon9YMQqg1NYA4xUnTO9iQhOvd26fx9x4tffXadTZmrVhsQryq1bczZzrhPnppgUSmglEFbUbxOK3x5I4ZucvR56qkBNyvagp0yLw=w1920-h1920-no,Không có,Không có,10.760701899999999,106.6884906,Đội Cảnh sát PCCC và CNCH Quận 1
Phòng Công chứng Số 1,"97 Pasteur, Phường, Quận 1, Thành phố Hồ Chí Minh 700000, Việt Nam",Công chứng viên,+84 913 717 299,downloaded_images\a33b93a9d3c26803c6f43529a0836715.jpg,https://lh3.googleusercontent.com/gps-cs-s/AG0ilSwtUe-8QnM9pXFob8g6yNRzveaTdnjg3S9uwpRFU_7IRiXNMG8PGvqhQy77t2TpjY4EP9am92Sbz8T45gPfVo5SJ3F9XkEoqJyFAycRTm9ofGocc2gCVtchUdLWDGg9Yi32EJeXDQ=w1920-h1920-no,Không có,https://congchung.gov.vn/,10.7777534,106.69845699999999,Phòng công chứng Quận 1
Văn phòng Công Chứng Bến Thành,"99 - 101 Nguyễn Công Trứ, Phường Nguyễn Thái Bình, Quận 1, Thành phố Hồ Chí Minh, Việt Nam",Công chứng viên,+84 28 3821 4999,downloaded_images\e2e76bec3d9c4fe2e9df4fdcd06d4348.jpg,https://lh3.googleusercontent.com/gps-cs-s/AG0ilSxDWqF82PFpvBT2G4uFzL9-MACpvexHHUNT5-7K8MTbotD50lf2PPhNG7h3hhiiHQC2q0nT59-1U5xDDrx8AV2Gmv0uOAS-IEdAi9iK5tZi5cuM1FllB1UC4USSiuA5zGPmAqI=w1920-h1920-no,Không có,http://congchungbenthanh.com/,10.7693853,106.702584,Phòng công chứng Quận 1
Văn Phòng Công Chứng Gia Định,"214/B2 Nguyễn Trãi, Phường Nguyễn Cư Trinh, Quận 1, Thành phố Hồ Chí Minh, Việt Nam",Công chứng viên,+84 28 6291 1116,downloaded_images\1bf175832d3023f3427b11953141f65c.jpg,https://lh3.googleusercontent.com/gps-cs-s/AG0ilSx2EK-AeIJquutbdr-vx_dTv7QoxfsuTcj7KVt-xLtVpetFxXV5GcwTNa1kx7l6Wkz6TCvJZ2uDwNaWVkMT0IriF-AW7LUNddX9ZJB-bDwCjT_4aHsA0PMjnbuo5Kv2PEu5rG1Z=w1920-h1920-no,Không có,Không có,10.7630684,106.68606919999999,Phòng công chứng Quận 1
Văn Phòng Công Chứng Nguyễn Kim Chi,"235 Trần Quang Khải, Phường Tân Định, Quận 1, Thành phố Hồ Chí Minh, Việt Nam",Dịch vụ pháp lý,+84 28 3848 1118,downloaded_images\0ffa6d87e97c22e1de5a3f304bad825e.jpg,https://lh3.googleusercontent.com/p/AF1QipNCiiKfb_s4slJFMImod9eVC0_AvpvnMN2hlYWq=w1920-h1920-no,Không có,https://doanhnghiepmoi.vn/thong-tin/Van-Phong-Cong-Chung-Nguyen-Kim-Chi-22979.html,10.791333199999999,106.6888321,Phòng công chứng Quận 1
Văn Phòng Công Chứng Sài Gòn,"136 Nguyễn Thái Bình, Phường Nguyễn Thái Bình, Quận 1, Thành phố Hồ Chí Minh 700000, Việt Nam",Công chứng viên,+84 28 3915 2339,downloaded_images\50d619593854ec3962a91fbaecff3156.jpg,https://lh3.googleusercontent.com/gps-cs-s/AG0ilSzOfsHYkyAAnDUR-lvD3eTVjre_5DKMTtwLN9JMwonv4-XephKst_ad4XESXpcp1pmnb0X0JXU2w33cGAVfVynTwE0NYULYVggswINaEKeJiqPIccX9aHGvywS46jRc6RiUvTupOg=w1920-h1920-no,Không có,Không có,10.7681803,106.69834499999999,Phòng công chứng Quận 1
Văn phòng Công chứng Nguyễn Thành Hưng - Công Chứng Quận 3,"57 Võ Thị Sáu, Phường Xuân Hoà, Quận 3, Thành phố Hồ Chí Minh 70000, Việt Nam",Công chứng viên,+84 1800 6365,downloaded_images\fc2354998399594216442eae62dcb8cf.jpg,https://lh3.googleusercontent.com/gps-cs-s/AG0ilSxUPlPr6_F-FunAjFjI0GasOELFa7dEM_4d4XLntWkRRiBFy_C_RdbDUwEASyIW2CSqbu67DokQtcZhJOWueH9vjTU1WTfGC44hruqhDyHV9el5a1pPrlkBFOYEmUuMCZRGkCeW=w1920-h1920-no,Không có,http://congchungthinhtri.com/,10.7875912,106.69185159999999,Phòng công chứng Quận 1
Văn Phòng Công Chứng Trần Quốc Phòng,"214/B2 Nguyễn Trãi, Phường Nguyễn Cư Trinh, Quận 1, Thành phố Hồ Chí Minh, Việt Nam",Công chứng viên,+84 28 6291 1116,downloaded_images\4b59c00f34024b4fb1b98f191cdd756e.jpg,https://lh3.googleusercontent.com/gps-cs-s/AG0ilSzoFXTSP2pi5n9XFYSeg3utFGqDGOPHEvjewaLakFMq1T_a2YQgotNT6IjaDnA3wEgWFDWP0yq5ILGF54zgNBuAAD0uMPND1QQGgExwt6UCcF6wQ7Uxg95Ptd2hZ_l1-zDtQPYs=w1920-h1920-no,Không có,Không có,10.763174,106.686025,Phòng công chứng Quận 1
Văn phòng Thừa Phát Lại Quận 1,"124 Trần Quang Khải, Phường Tân Định, Quận 1, Thành phố Hồ Chí Minh 700000, Việt Nam",Công chứng viên,+84 28 3820 6999,downloaded_images\8b5d51964af44ce9b520b01365cf7f10.jpg,https://lh3.googleusercontent.com/p/AF1QipM7p0LJ2GDHiMQRIS6_LKOYD7ilIOEdSl2PqHu-=w1920-h1920-no,Không có,http://manhhunggroup.com.vn/,10.7922569,106.6920225,Phòng công chứng Quận 1
Văn Phòng Công Chứng Bến Nghé,"31 Đ.Lê Thạch, Phường 13, Quận 4, Thành phố Hồ Chí Minh, Việt Nam",Công chứng viên,+84 902 452 450,downloaded_images\4203c02eece877cde56ee58a786b176b.jpg,https://lh3.googleusercontent.com/gps-cs-s/AG0ilSxuxjFrBLu1wezow6-96BcPjRjS38MgYFNnYPuWA784rYK1MLDxmZv0jlvWT4xT8d3hM-Ap8KvMe2i1_omKyl2S0iwaAEL020jA3nVD2JH3VBvBwUXRfei5VofkmJX99hoT4NT1=w1920-h1920-no,Không có,Không có,10.763986599999999,106.7061585,Phòng công chứng Quận 1
VĂN PHÒNG CÔNG CHỨNG TRUNG TÂM THÀNH PHỐ HỒ CHÍ MINH (tên trước đây: VĂN PHÒNG CÔNG CHỨNG PHẠM XUÂN THỌ),"240 Nguyễn Thị Minh Khai, Phường 2, Quận 3, Thành phố Hồ Chí Minh, Việt Nam",Công chứng viên,+84 28 3930 3808,downloaded_images\99099771c8e541cc751342382c9cc0ae.jpg,https://lh3.googleusercontent.com/gps-cs-s/AG0ilSyzKflXSLlVxCN_0M5c9mu9P0GmVelZ51BDAMXj0lsVy_en549MXqA00M8q0VUkTtLJTpVpOXC8VjTBzAePEJVcpN5jrdpitxrTfhxGRKeeU-hQ6b1Ueo6LCM-xq0kUk-0YoZPHjg=w1920-h1920-no,Không có,https://congchungtrungtam.com.vn/,10.7742991,106.6897592,Phòng công chứng Quận 1
Văn phòng Công Chứng Châu Á,"44 Võ Văn Tần, Phường 6, Quận 3, Thành phố Hồ Chí Minh, Việt Nam",Công chứng viên,+84 28 3930 0903,downloaded_images\a4ac6a4b8a1169295bc579669b27133e.jpg,https://lh3.googleusercontent.com/gps-cs-s/AG0ilSwh0QXU7laZPkpd-tC5Msr3rYHuw1l378RBzWXAhMTltpPLbd1KBksUpf613z5QU1NaSRa9F7wuz8OyuxBBPwi-hbpFjhIKqPV9_s3TXem4QVSLzVC11xZbDbb7JQ_Bh4DyZ56X=w1920-h1920-no,Không có,http://congchungchaua.vn/,10.7780466,106.6913426,Phòng công chứng Quận 1
Văn phòng Công chứng Nguyễn Việt Cường,"184 Duong Ba Trac, Phường Rạch Ông, Quận 8, Thành phố Hồ Chí Minh, Việt Nam",Dịch vụ pháp lý,+84 28 3850 7979,downloaded_images\ec9fc2f70e0d783c97934bc15f75cd4e.jpg,https://lh3.googleusercontent.com/gps-cs-s/AG0ilSwluOAAcrzAp5MVEoECuC0kch6l2P4gZYNKt60ajPxv63vUz5cllUpx7RH2gfR5s_850hvhjOBmbLRE_3t99g0FwpLlj8Al_CU1YB-YwW2YXJrZdNX2KPLwYNsXoVIbeg5PGd4=w1920-h1920-no,Không có,Không có,10.746857,106.68880899999999,Phòng công chứng Quận 1
Dịch thuật công chứng tại HCM - Tâm Hoà Phát,"34 Lê Duẩn, Bến Nghé, Quận 1, Thành phố Hồ Chí Minh 70000, Việt Nam",Văn phòng công ty,+84 826 070 899,downloaded_images\ffc66ac7a88cafc404cb95e3ce582d97.jpg,https://lh3.googleusercontent.com/gps-cs-s/AG0ilSx3XBM9HFItd0AeKc6dRRMqXmpmkafTYlplYT0GWH3A3WoLQVfw0MoFstGlF0q2v-ZhB9TBHZwoEIQdDjJJekn_E8vkdBbfsBh4y8p-DHZYlu5aATxOglLIFsTyeo8en-Q2M59y=w1920-h1920-no,Không có,https://dichthuattamhoaphat.com/,10.780987,106.6984947,Phòng công chứng Quận 1
Văn Phòng Công Chứng Nguyễn Nguyệt Huệ,"156 Đ. Phạm Văn Chí, Phường 1, Quận 6, Thành phố Hồ Chí Minh, Việt Nam",Công chứng viên,+84 28 6275 9519,downloaded_images\5c27f9bfecc1fc8c04622bc56039980c.jpg,https://lh3.googleusercontent.com/gps-cs-s/AG0ilSz997Rd9OmxFvoouiNxS0vTmc6iVW6hPNSAWv0fWXnZ3LtzjRTAE1zcF9l_1F2bEw89vOrqsQYTucilCobE9S6CuZ3wxQDCzsTWOwwFFGzEUJhav-d_Q5aGa9sHBGPc4Dy8kag_=w1920-h1920-no,Không có,https://congchungquan6.com.vn/,10.7454577,106.64774849999999,Phòng công chứng Quận 1
Công chứng Hội nhập,"230 Đ. Số 48, Phường 2, Quận 4, Thành phố Hồ Chí Minh, Việt Nam",Dịch vụ pháp lý,Không có,downloaded_images\6f99ca1ce3ccfbcc65e56c4c908d5021.jpg,https://lh3.googleusercontent.com/gps-cs-s/AG0ilSw4eS5Z3-tFI3JpJqs12el4FE_XlCoKVOMTFtFtbaUTFSMW4DRZsAd2kvfDEouGpC_nqR7br6E3Urz_9WWom_1irS_nj018eFvyh1G6aDz25afYJffKT0DqH9Cy-HZRD55UTRIA=w1920-h1920-no,Không có,Không có,10.7591538,106.6983601,Phòng công chứng Quận 1
Văn Phòng Công Chứng Vũ Ái Lê,"138 Hà Huy Tập, Tân Hưng, Quận 7, Thành phố Hồ Chí Minh 00700, Việt Nam",Công chứng viên,+84 848 138 138,downloaded_images\36977934dfbc68dc76fe2cadf70d1454.jpg,https://lh3.googleusercontent.com/gps-cs-s/AG0ilSxMMk0Hs8l8VH3Kpeia8MV-sKZ3cPQ-s_fwVaMa-FjpsCCFvjZnH9oFCZVsmwzDiMuLJ9N01ZeFjKQi6SZwRdkgBa0F-7Jxb9nRQCNRd4BJTiUgH60Sl2qQPbG4CPl8KkNZhZk=w1920-h1920-no,Không có,Không có,10.726587499999999,106.7091926,Phòng công chứng Quận 1
Văn phòng công chứng Nguyễn Văn Tuấn,"24-26 Đường Số 5, Khu đô thị Him Lam, Quận 7, Thành phố Hồ Chí Minh, Việt Nam",Dịch vụ pháp lý,+84 933 090 873,downloaded_images\150f9efff220190f55b58c09e35e1c92.jpg,https://lh3.googleusercontent.com/gps-cs-s/AG0ilSy-aX5iuAdnKveqSOKrrvP4dyXl3LMhln2YX72cnhRF-uXMIZxbPqR98uZEHsVxwDNB9sFPNtSihV-fQoIboLPECz9Yn2ajLvv03lRPlDUbuMC7KHKe3xfw18QQCVH1NRdUcWjX=w1920-h1920-no,Không có,Không có,10.7403029,106.6971726,Phòng công chứng Quận 1
Văn Phòng Công Chứng Quận 10 (cũng là Văn phòng Công chứng Nguyễn Lê Nghĩa),"Lê Hồng Phong/519 phường Vườn Lài, Phường 12, Quận 10, Thành phố Hồ Chí Minh, Việt Nam",Văn phòng công ty,+84 902 219 897,downloaded_images\d4708abe61779dea1addc0f3a134d1e5.jpg,https://lh3.googleusercontent.com/gps-cs-s/AG0ilSztwA53hoPY0C5DGquNI3qrmcJ5cN_EElxD7AWfpKIgL1qt8LbNKmyYHUY_fCeppBXMAC4fh6ZXEjCagf3Cu_47eZdc90IVyQuoXsXRDsr2uCSkWYzgdsgr3YrrMUkRk9j8m7W3=w1920-h1920-no,Không có,http://vpccquan10.vn/,10.7671172,106.674369,Phòng công chứng Quận 1
Dịch thuật công chứng 123,"số 168 Trần Hưng Đạo, Phường Nguyễn Cư Trinh, Quận 1, Thành phố Hồ Chí Minh, Việt Nam",Công chứng viên,+84 934 532 999,downloaded_images\a320b6f9e3c4e2cd5e6382808e19b055.jpg,https://lh3.googleusercontent.com/p/AF1QipPQHezudJ0KY0Z8Z46Aulsh2EN0jLpw7vyOotBb=w1920-h1920-no,Không có,https://dich123.vn/,10.763656899999999,106.69105139999999,Phòng công chứng Quận 1
Công An Quận 3,"243 Cách Mạng Tháng Tám, Phường 4, Quận 3, Thành phố Hồ Chí Minh, Việt Nam",['Đồn cảnh sát'],+84 28 3839 2764,downloaded_images\2cc59313fbcdb7a4d19a31ed2ef56eda.jpg,https://lh3.googleusercontent.com/gps-cs-s/AG0ilSwZ0CcAXJMle5yp0JwW-XO_AZQmegtVFYTAC5XmReAnWGqQ2hcQsgMsn4U3lV1ksiE5go2sMAn_ProJgy15I6fQ9Glqjn_OzrGFF1UOl-sG4SkNlJEUeSDj0KCa4uByfU-PR_w=w1920-h1920-no,Không có,Không có,10.7768385,106.6825933,Công an Quận 3
UBND Phường Xuân Hoà,"99-99A Trần Quốc Thảo, Phường 7, Quận 3, Thành phố Hồ Chí Minh, Việt Nam",Văn phòng chính quyền quận,+84 28 3932 6868,downloaded_images\97008698d9a5f9c8f8860cf0823176ad.jpg,https://lh3.googleusercontent.com/gps-cs-s/AG0ilSxOE56ZGwPMO9KJ_tiXouGmKe6SRbjJgtglABacv0mjCjm_YfxewiME3uMBhgpGHyKPwRStJ4hOaBW6omzpIyBG5GF3gZx221MS9WQV6P4e0nBID7Gzw5mhRuvPqGhUJyIO394=w1920-h1920-no,Không có,http://quan3.hochiminhcity.gov.vn/,10.7828058,106.6861435,Ủy ban nhân dân Quận 3
UBND Phường 4 Quận 3,"337 Điện Biên Phủ, Phường 4, Quận 3, Thành phố Hồ Chí Minh, Việt Nam",Văn phòng chính quyền địa phương,+84 28 3832 8197,downloaded_images\7f4798bca870ac5271e9aa992b08a627.jpg,https://lh3.googleusercontent.com/gps-cs-s/AG0ilSwa4gh4z_BK5Osq9cfCwfnGDDNBHAKsGA-s46eTRj8DIlW0_wY6Eqk990Lrq8iirtEdzz-1r4w2vTjTR53RxPl7OuW0SVKc7OADFw-hohKTiuzXHIWCCwAlX0BWRXSWCKXL05UVunlpj5Y=w1920-h1920-no,Không có,Không có,10.7753006,106.68248679999999,Ủy ban nhân dân Quận 3
Trung Tâm Y Tế Quận 3,"116 Trần Quốc Thảo, Phường 14, Quận 3, Thành phố Hồ Chí Minh, Việt Nam",['Trung tâm y tế'],+84 966 821 010,downloaded_images\d0134abb21c1ddeffc6899999834a34d.jpg,https://lh3.googleusercontent.com/p/AF1QipOXVXYyQbIDwBZenw8-UcaYCow4jEkLO3WH-geb=w1920-h1920-no,Không có,http://trungtamytequan3.medinet.gov.vn/,10.7848247,106.68384569999999,Trung tâm y tế Quận 3
Bệnh Viện Quận 3,"114 Trần Quốc Thảo, Phường 14, Quận 3, Thành phố Hồ Chí Minh, Việt Nam",['Bệnh viện'],+84 28 3931 0400,downloaded_images\7c9ffb1175ab005b819b0b2282dba948.jpg,https://lh3.googleusercontent.com/gps-cs-s/AG0ilSy9btgPO6Ee1kLSNMXEVnsm_umIBoue8M6yLnsHxGnYzu4sq7hHvrQR9OHc9uvAOPT3kIwKe4Ji8mLKvlTWHQjwTGcSAPJUMs66M3BCfrnWZmdgHv97B0KznMr9t-ev6pbrIeQ4=w1920-h1920-no,Không có,https://bvquan3.medinet.gov.vn/default.aspx,10.7847873,106.6839614,Bệnh viện Quận 3
Đội Cảnh Sát Giao Thông Trật Tự Cơ Động Quận 3,"243 Cách Mạng Tháng Tám, Phường 4, Quận 3, Thành phố Hồ Chí Minh, Việt Nam",Văn phòng chính phủ,Không có,downloaded_images\20763bbe941ae2f4eb82b3c34f429f36.jpg,https://lh3.googleusercontent.com/gps-cs-s/AG0ilSwG56sWb31LZItJqHRr02Erxvoum6EtWIyMMqMkf2DBBSgLjPPh0ooGFEkDz4oxo4EqKcew7UeirtaFq_7JJsjiKTYkEa5T4zMCogkoZLclEH-XXxctJa_Ymaf4UjhS5B4VpzhXSSy6u6t3=w1920-h1920-no,Không có,Không có,10.7768271,106.6825564,Đội Cảnh sát giao thông Quận 3
Đội CSGT Bàn Cờ,"369 Võ Văn Tần, Phường 5, Quận 3, Thành phố Hồ Chí Minh, Việt Nam",Trạm cảnh sát giao thông,+84 28 3839 1868,downloaded_images\4df913a28ac6a9d1cc56dc30651edb28.jpg,https://lh3.googleusercontent.com/gps-cs-s/AG0ilSyO2qBj5IIvE0Gp3dbjn6fBOZavSxFOicAiH4Dz5ACNHcY7HkuHN1llv7IXH80hXBZqmijFECB2uqzp_ttbzbjEah17rraNyGZI69yaExW1mCFXz-qt9u2BTZkml5fEW1e65NP2Vg=w1920-h1920-no,Không có,Không có,10.770780799999999,106.685099,Đội Cảnh sát giao thông Quận 3
Đội PCCC & CNCH Quận 3,"106 Lý Chính Thắng, Phường Võ Thị Sáu, Quận 3, Thành phố Hồ Chí Minh, Việt Nam",['Trạm cứu hỏa'],+84 28 3526 5427,downloaded_images\be7629624cfa66ef321774d42fdcb63d.jpg,https://lh3.googleusercontent.com/gps-cs-s/AG0ilSxlyAUPv8OjacrewqlooEMakkOjIK_Q6NVmJA0wLKpwVaFoDxADBpBKX4DwXTM4jeksACRMgPlrpru25M8PjTbwFXh1EC9la1i6VDvh5ueOq6LnCtwy_LkyluUhMqDxn7A8SMY=w1920-h1920-no,Không có,Không có,10.789565,106.68549139999999,Đội Cảnh sát PCCC và CNCH Quận 3
Văn phòng Công Chứng Văn Thị Mỹ Đức,"47E Nguyễn Thông, Phường 9, Quận 3, Thành phố Hồ Chí Minh 70000, Việt Nam",Công chứng viên,+84 28 3526 2556,downloaded_images\d31e192b169d3c57d27a77206e69eda2.jpg,https://lh3.googleusercontent.com/p/AF1QipO3RhVlId0h4SAKhbweKYkqIz772S1dG_Nv-yXH=w1920-h1920-no,Không có,https://congchungmyduc.com/,10.779494999999999,106.68187499999999,Phòng công chứng Quận 3
Văn phòng Công chứng Nguyễn Hà Sơn,"Võ Văn Tần/281 Bàn Cờ, Phường, Quận 3, Thành phố Hồ Chí Minh 700000, Việt Nam",Văn phòng công chứng tư pháp,+84 931 000 096,downloaded_images\8e112a18e5e56a110168a2a5cc3612f6.jpg,https://lh3.googleusercontent.com/p/AF1QipMqbqJzpymvG8svx6c62_MrwMXGutd539cKyu1g=w1920-h1920-no,Không có,http://nguyenhason.com/,10.772293,106.6864494,Phòng công chứng Quận 3
Văn Phòng Công Chứng Lấp Vò,"210 Đ. 3 Tháng 2, Phường 12, Quận 3, Thành phố Hồ Chí Minh, Việt Nam",Công chứng viên,Không có,downloaded_images\4223670db8604020942a81e7a9980023.jpg,https://streetviewpixels-pa.googleapis.com/v1/thumbnail?panoid=7kyfXAUeINsB0Ph0KlTMdw&cb_client=search.gws-prod.gps&w=80&h=92&yaw=331.1306&pitch=0&thumbfov=100,Không có,Không có,10.774272199999999,106.6780562,Phòng công chứng Quận 3
Công An Quận 4,"14 Đoàn Như Hài, Phường 12, Quận 4, Thành phố Hồ Chí Minh, Việt Nam",['Đồn cảnh sát'],+84 28 3940 0188,downloaded_images\6b0a36041d40b31b167e3ff6f02adc6f.jpg,https://lh3.googleusercontent.com/gps-cs-s/AG0ilSxqw22VrruI0425N_xCrVX6npJy1ydDKmRLWQ83dXPWgX_5_mW2zNvjt7HI_QC9AzIrianDzQ858t9wNJS27FuSoEHc2B2Tomv_xK2tm-gflAXOuGUW8AQvZtmQ3i3pfF1UtAdC=w1920-h1920-no,Không có,Không có,10.7667934,106.7057798,Công an Quận 4
UBND Phường Xóm Chiếu,"18 Đoàn Như Hài, Phường 13, Quận 4, Thành phố Hồ Chí Minh, Việt Nam",Văn phòng chính quyền quận,+84 28 3943 1124,downloaded_images\fd982b87eef9e4ef252ea56d3b692457.jpg,https://lh3.googleusercontent.com/gps-cs-s/AG0ilSzLZDegM47LscMb1NKxtQULx0i75dZTDBFqwqkZv5sBeZC3Luit5LPsPdEZz06VdlfPtQrXqDZoj6HZ1m2-TnV5tUwnKMl5z_VFizVYkLhlqEgc3PQMMmd86HjEAZ4WbuZdi5qj=w1920-h1920-no,Không có,http://www.quan4.hochiminhcity.gov.vn/,10.7663304,106.7051269,Ủy ban nhân dân Quận 4
UBND Phường 1 Quận 4,"360 Bến Vân Đồn, Phường 1, Quận 4, Thành phố Hồ Chí Minh, Việt Nam",Văn phòng chính quyền địa phương,+84 28 3826 4181,downloaded_images\3d72cd1b953b9563bbccea4b88e92355.jpg,https://lh3.googleusercontent.com/gps-cs-s/AG0ilSyED6jVSdhH-bgi_hApQTT2GDDx0ln3GDCrJIEcomWP1dGFnD39nCswn5dI4HcnfvRcfcvRyKeOJxhMUbalR7dThii-oUXn1LficPt9XJmOa0oSAl-tHcg3v7z4i2-mp98ykunN=w1920-h1920-no,Không có,Không có,10.7548731,106.6894445,Ủy ban nhân dân Quận 4
UBND Phường 3 Quận 4,"89 Khánh Hội, Phường 3, Quận 4, Thành phố Hồ Chí Minh, Việt Nam",Văn phòng chính quyền địa phương,+84 28 3940 4517,downloaded_images\0ac68fca2543233569ecffc2cd8d70c4.jpg,https://lh3.googleusercontent.com/gps-cs-s/AG0ilSxdQnA6rtiPJvu1aoS_oxjM88PUHFeEb0vOH7hC1MGJx6K9tpzVdewtdLJfq169_UHL94i_MjS9Mg_L-dF4AXgA8yFM-SHq7WYkgAeWV04sHDwYx3V85H0SvtkxwZblm-zBQh_PUA=w1920-h1920-no,Không có,Không có,10.7550762,106.70171529999999,Ủy ban nhân dân Quận 4
Trung Tâm Y Tế Quận 4,"217 Khánh Hội, Phường 2, Quận 4, Thành phố Hồ Chí Minh, Việt Nam",Dịch vụ y tế địa phương,+84 28 3826 5949,downloaded_images\6201eada3aec26edfbf5871e690acc95.jpg,https://lh3.googleusercontent.com/gps-cs-s/AG0ilSxWe-yLaW2ep73pwmi5p1Mf9wD0FmgFG6nlQ6ip-E7I2wDux0kbtUP-EOPCvnHoV3MpKbuzQp-378LJC2CTai4xeDABeHdUyAbw6B0sQjFwcUKp-eD-KXolxqqRiv8rvtsA-p_DFw=w1920-h1920-no,Không có,Không có,10.758324199999999,106.6992894,Trung tâm y tế Quận 4
Trung Tâm Y Tế Quận 4,"2 Đ. Lê Quốc Hưng, Phường 12, Quận 4, Thành phố Hồ Chí Minh 70000, Việt Nam",Bệnh viện,+84 28 3539 2827,downloaded_images\90232a032a5d7080fe046737e32eb584.jpg,https://streetviewpixels-pa.googleapis.com/v1/thumbnail?panoid=6r-Xj4mnO66zJXytKmXgSg&cb_client=search.gws-prod.gps&w=80&h=92&yaw=143.40758&pitch=0&thumbfov=100,Không có,https://trungtamytequan4.medinet.gov.vn/,10.7653885,106.702652,Trung tâm y tế Quận 4
Trạm Y Tế Phường 4 Quận 4,"183 Tôn Thất Thuyết, Phường 4, Quận 4, Thành phố Hồ Chí Minh, Việt Nam",Trung tâm y tế,+84 28 3940 2921,downloaded_images\6390195908b9122499b0232b97063ac6.jpg,https://lh3.googleusercontent.com/gps-cs-s/AG0ilSyxIN1T_DG2yKewb0RJZT65B3-AijReXQjM_ppjnQOSDVdjMh-ap402gYWPxJL704-3Z3uy-YRs_yvE69GDwRoWLd2OIb41wTNtqBUQER0ETyjaH5T4YaWaPDwItmmfbtnK4FmX6g=w1920-h1920-no,Không có,https://timbenhvien.vn/chi-tiet/tram-y-te-phuong-4-quan-4/1190,10.753298,106.70354309999999,Trung tâm y tế Quận 4
Bệnh viện Quận 4,"65 Bến Vân Đồn, Phường 12, Quận 4, Thành phố Hồ Chí Minh, Việt Nam","['Bệnh viện', 'Bệnh viện đa khoa']",+84 838 261 568,downloaded_images\0df26400f11d875620bf6be5840bd39a.jpg,https://lh3.googleusercontent.com/gps-cs-s/AG0ilSzIC0wx3Zls22rUUgLBiym-LzuUNtBkBEwiJtaGw6B4k1alMtdrwD1WsNnJho_2PyaDx8W-2Y0PcGldDid8CDd2w1rBBQfBM7clIh3PkR2tzhFpgm7OJL-IKbmIa1rpWaTLEttQ=w1920-h1920-no,Không có,http://benhvienquan4.vn/,10.765396899999999,106.7021024,Bệnh viện Quận 4
Đội Cảnh Sát Trật Tự Giao Thông Quận 4,"92 Hoàng Diệu, Phường 13, 4, Thành phố Hồ Chí Minh, Việt Nam",['Tòa án'],+84 28 3826 3389,downloaded_images\531a23b908958f46fdb263e2e1a485b7.jpg,https://streetviewpixels-pa.googleapis.com/v1/thumbnail?panoid=36_98azWpDwrbch_UpNjgA&cb_client=search.gws-prod.gps&w=86&h=86&yaw=287.31024&pitch=0&thumbfov=100,Không có,Không có,10.7642518,106.70482559999999,Đội Cảnh sát giao thông Quận 4
PCCC quận 4,"QP33+88M, Phường 4, Quận 4, Thành phố Hồ Chí Minh, Việt Nam",Trạm cứu hỏa,Không có,Không có,,Không có,Không có,10.7533304,106.7032856,Đội Cảnh sát PCCC và CNCH Quận 4
Đội CC & CNCH KV13,"số 2 Đường T6, Tây Thạnh, Tân Phú, Thành phố Hồ Chí Minh, Việt Nam",Dịch vụ phòng cháy,Không có,downloaded_images\672e0fe9462a970e798b6cfc12a087c9.jpg,https://lh3.googleusercontent.com/gps-cs-s/AG0ilSyw_gZgKqW_3onmSOjQzW2GW7JaEag115LB_KCT28MfgcKaI3O-4VE1xO8BXbNB9ceKsiOqcpQ1mwR1y4YEl9YD_UiU488DBSvnkYVSdh3ewOiNjGLjH8hY2cRJ-b08pCCknbk3=w1920-h1920-no,Không có,http://www.pccc.hochiminhcity.gov.vn/,10.8097499,106.6172397,Đội Cảnh sát PCCC và CNCH Quận 4
Đội PCCC & CNCH Quận Bình Thạnh,"18A Phan Đăng Lưu, Phường 7, Bình Thạnh, Thành phố Hồ Chí Minh, Việt Nam",Trạm cứu hỏa,Không có,downloaded_images\a91f2f641f0db02f146a195eb89b4df6.jpg,https://lh3.googleusercontent.com/gps-cs-s/AG0ilSy6yfKFs4qs6gUs41L3NC5eaETx56klujuozEhWSBwTx5nrHjV4mMEmsng34q9bmsTkMdKdqs-qYaobw6CwhBr2Obb_te_SaDSM0gUB0Zv8l4HPa-TGfyAv2fOnflT_nDyPWohsbA=w1920-h1920-no,Không có,Không có,10.803549199999999,106.690975,Đội Cảnh sát PCCC và CNCH Quận 4
Đội PCCC & CNCH Quận 8,"250 Đ.Tùng Thiện Vương, Phường Xóm Củi, Quận 8, Thành phố Hồ Chí Minh, Việt Nam",Trạm cứu hỏa,+84 28 3857 5943,downloaded_images\a8d536b59dc11e1f9abb9641f126c772.jpg,https://lh3.googleusercontent.com/gps-cs-s/AG0ilSxqh07MYNgVf0ZWTTJJUgV6YCS2p5HY1yjhqifMUdE1kfCYCsmXykTC87r12NjhQ2Zm7J-yWT70uRrUoYGcYjCzU2enM00sY7p17Vw3uMtL4dV9NsIyUr5HxwP924xsvNRt9jwI=w1920-h1920-no,Không có,Không có,10.7470289,106.661301,Đội Cảnh sát PCCC và CNCH Quận 4
Đội PCCC & CNCH Quận Gò Vấp,"108 Đ. Phan Văn Trị, Phường 1, Gò Vấp, Thành phố Hồ Chí Minh, Việt Nam",Trạm cứu hỏa,Không có,downloaded_images\2168abff8c3ebf869fdc8054c5ef47bf.jpg,https://lh3.googleusercontent.com/gps-cs-s/AG0ilSz5Sy1ilgzubA7lrJPWtq6JaSLYoCTnxz8ZNFOvy8ByRYApfk1PeSUHaqcTkjiKZ2Dgj9IDtMveRk_Ud8eGdXhyVT8PQEjIwBYnL356UR4uZxoqwEslmtA19selNP7UcmnkFsYs=w1920-h1920-no,Không có,Không có,10.8281362,106.6851117,Đội Cảnh sát PCCC và CNCH Quận 4
Đội PCCC & CNCH Quận Tân Bình,"856 Đ. Âu Cơ, Phường Tân Bình, Tân Bình, Thành phố Hồ Chí Minh, Việt Nam",Trạm cứu hỏa,+84 369 438 112,downloaded_images\580d3d7fa6e4e1808bff6059f27b6e92.jpg,https://lh3.googleusercontent.com/gps-cs-s/AG0ilSzxgcp4mieecN-Hl9mDpGo7gVReWfcmAkVBlh9I8HSoaljw1jfrOOpek5fPzmtVyW37dwK4vDRpuT3ffgi99DqGpjvrM7aQ6ucaZVEULfJ74znvoZTzA9xfJFQRJL7XlGZgi-BD=w1920-h1920-no,Không có,Không có,10.7935805,106.63911809999999,Đội Cảnh sát PCCC và CNCH Quận 4
VĂN PHÒNG CÔNG CHỨNG QUẬN 4 - LÊ QUỐC HUY,"Đoàn Như Hài, Phường 13, Quận 4, Thành phố Hồ Chí Minh, Việt Nam",Công chứng viên,+84 846 458 866,downloaded_images\ab849d08281aac1863333e2883412344.jpg,https://lh3.googleusercontent.com/gps-cs-s/AG0ilSyLyXQlPTLyngfuoMJXe7ZiL9V44SoaGZg4qwQJHGh6Ukr_w9pe5pKOrdzbdHnjYahKB4MKW0Fu_02tttEwVoGHsBI-fe7MJznzXBnysrDAj5O9PJX3nHUZmycxmURQCLxiYmtX=w1920-h1920-no,Không có,https://www.facebook.com/vanphongcongchungq4,10.7659875,106.70493239999999,Phòng công chứng Quận 4
Văn Phòng Công Chứng Nguyễn Minh Tấn,"53-55 Đ. Số 41, Phường 9, Quận 4, Thành phố Hồ Chí Minh, Việt Nam",Văn phòng công ty,+84 939 187 357,downloaded_images\f304f356ed0f3f39bd4bad86b5b6878e.jpg,https://lh3.googleusercontent.com/gps-cs-s/AG0ilSzpXbWbeCRPSkOB79mg55mOMxzwQZodmjZFF4d36v6_kBx0mLMER9W7JkttVpLvBCYX6JVkX7bV3jrSUs9FfsWfPcrxv5yz7VCwxeELkQmhiv9hgLDV-o_JkTuAzKh5MX29MKk=w1920-h1920-no,Không có,https://nhanlucnganhluat.vn/nha-tuyen-dung/van-phong-cong-chung-nguyen-minh-tan.html,10.7590804,106.7007996,Phòng công chứng Quận 4
Văn Phòng Công Chứng Quận 4,"122/27/88 Đ. Tôn Đản, Phường 8, Quận 4, Thành phố Hồ Chí Minh, Việt Nam",Văn phòng công ty,Không có,downloaded_images\8454baa1690b1a2feb3ec3efd78e267b.jpg,https://streetviewpixels-pa.googleapis.com/v1/thumbnail?panoid=Dqz89KncqD9vLAAfTcLKwQ&cb_client=search.gws-prod.gps&w=80&h=92&yaw=297.27536&pitch=0&thumbfov=100,Không có,Không có,10.758958999999999,106.704224,Phòng công chứng Quận 4
Công An Quận 5,"359 Trần Hưng Đạo, Phường 11, Quận 5, Thành phố Hồ Chí Minh, Việt Nam",Sở cảnh sát,+84 28 3855 0878,downloaded_images\c9289864f6a6e02ed6525efcff65f7ae.jpg,https://lh3.googleusercontent.com/gps-cs-s/AG0ilSyFJkW7Rsb1lwv-M7wJnVu9NjIVGzQ8R3ScyK2sl-uzLSoP1jqADTly-d2AUJktp_D3sYALH0wGzykxf3aLiW4mx92oPvBom68-RaNJp4lTo8wE-mqqyY14JKyzQHqDBYo2YDj9=w1920-h1920-no,Không có,Không có,10.7519262,106.6606894,Công an Quận 5
Công An Phường 5 Quận 5,"23 Đ. Nguyễn Văn Đừng, Phường 5, Quận 5, Thành phố Hồ Chí Minh, Việt Nam",Cảnh sát dân sự,+84 28 3923 5687,Không có,,Không có,Không có,10.7511792,106.6710296,Công an Quận 5
Công An Phường 5 Quận 5,"77 Đ. Nghĩa Thục, Phường 5, Quận 5, Thành phố Hồ Chí Minh, Việt Nam",Đồn cảnh sát,+84 28 3923 4504,Không có,,Không có,Không có,10.752463899999999,106.6745696,Công an Quận 5
"Công An Phường 1, Quận 5","660 Võ Văn Kiệt, Phường 1, Quận 5, Thành phố Hồ Chí Minh, Việt Nam",Đồn cảnh sát,+84 28 3923 4550,downloaded_images\63aaa7e79099fb887ddfac63dc50bd08.jpg,https://lh3.googleusercontent.com/gps-cs-s/AG0ilSzY4mcGeHohdDS0EN6EUAJbX2M0LCvuACSKxjrR_s-w_viIADKeuNqlcSaxB03l1wiJqpIi0QiPX6KDacLkvZ-AMJpNXpukBtHH9CdijeJfKiqLTNwKvE9WoZsjoMVcW8Rn08VZrg=w1920-h1920-no,Không có,Không có,10.7520133,106.6837035,Công an Quận 5
UBND Phường Chợ Quán,"209 An Dương Vương, Phường 7, Quận 5, Thành phố Hồ Chí Minh, Việt Nam",Văn phòng chính quyền địa phương,+84 28 3855 0250,downloaded_images\521ddfeb6fdae436400ba4d3b7a632c9.jpg,https://lh3.googleusercontent.com/gps-cs-s/AG0ilSyKy7j9MySUVJ7FUncwteW7oooA1mwvbUjIVp8WDqb3YEwilWG3r5sVQEIe5xgJTH3IRsTO-NYLVwhz330gWDjdSsAgjXJ2zMZKDxPRObTbiGIs96rtOtDezq851XqL_wCxM2RfEw=w1920-h1920-no,Không có,Không có,10.7558677,106.6669355,Ủy ban nhân dân Quận 5
UBND Phường 5 Quận Bình Thạnh,"137 Nguyễn Văn Đậu, Phường 5, Bình Thạnh, Thành phố Hồ Chí Minh, Việt Nam",Văn phòng chính quyền địa phương,+84 28 3515 8505,downloaded_images\a624208b9f4cfb74a98a3cb66c8e7e38.jpg,https://lh3.googleusercontent.com/gps-cs-s/AG0ilSyMLhPbIB9kRmIUsydxsaXyWiKMQ3fFKnCLbcZZ_Apl6WdvWp56IHzbqKH7-pAjFNl_97czrrWqQSZ8-NNzqoTLFKfJVrzdGcSwO5FWO-2xz_mhpKqmHI0MOIFTc7IgtvI9Qp5_=w1920-h1920-no,Không có,Không có,10.8100202,106.68963169999999,Ủy ban nhân dân Quận 5
ỦY BAN NHÂN DÂN PHƯỜNG 7 QUẬN 5,"268 Nguyễn Trãi, Phường 7, Quận 5, Thành phố Hồ Chí Minh, Việt Nam",Hiệp hội/Tổ chức,Không có,downloaded_images\e12ddbc057475205d6257e43c28d6fe2.jpg,https://streetviewpixels-pa.googleapis.com/v1/thumbnail?panoid=T_HTFi2J1dxAR4BSDJ1pEg&cb_client=search.gws-prod.gps&w=80&h=92&yaw=324.20584&pitch=0&thumbfov=100,Không có,Không có,10.7563721,106.67598319999999,Ủy ban nhân dân Quận 5
UBND Phường An Đông,"203 An Dương Vương, Phường 7, Quận 5, Thành phố Hồ Chí Minh 70000, Việt Nam",Văn phòng chính quyền địa phương,Không có,downloaded_images\28dbe29f618093547411d936eb556097.jpg,https://lh3.googleusercontent.com/gps-cs-s/AG0ilSyaKV46aRSdr2R4ncPd0N3iUrH4-RWsToRSVF7sVVRlwNSYKuyitsR3K2pCuVu0NhEiWSBR4EvfVAl2PONSP1oiK_R2SnA0b-cem4i4hdCVCnGdy_ksYfkzJ6kbpSs9XgvIG0cpgNnUKUCm=w1920-h1920-no,Không có,Không có,10.756020999999999,106.6677938,Ủy ban nhân dân Quận 5
UBND Phường Chợ Lớn,"131 Đ. Triệu Quang Phục, Phường 11, Quận 5, Thành phố Hồ Chí Minh, Việt Nam",Văn phòng chính quyền địa phương,Không có,downloaded_images\c43b7e47c06a0c413ee52414820b07f0.jpg,https://lh3.googleusercontent.com/gps-cs-s/AG0ilSz4LtyvzbTs8e6wdf3G-edWkW8FHXi1gt7PYEGD9qEXUIOBru4t4YKFrb5hTixjVQ7vwbqkGkmc5b8w8gZtlK3Ugql1P2JVUb4xhfj-HF-A3qCeFdVDXJZEjOdpBqHJ29GANDtjmvsC8EDs=w1920-h1920-no,Không có,Không có,10.752754099999999,106.6611253,Ủy ban nhân dân Quận 5
UBND Phường 5 Quận Phú Nhuận,"94 Phan Đăng Lưu, Phường 5, Phú Nhuận, Thành phố Hồ Chí Minh, Việt Nam",Văn phòng chính quyền địa phương,+84 839 954 199,downloaded_images\25d30b9ccf14837d2fbc2e2efd21387f.jpg,https://lh3.googleusercontent.com/gps-cs-s/AG0ilSw7s18J3PIPwMDwRfM6YExyPIavJgXPjdY2xxJylZnfMFr2pRib0W59IBeIhgWY3MDnDVok84ysS436DDFR_IFkVsxGpYzrdQ1ibHEWsHdwsiI42jeA8YmwlmSFCIoRCduw5g4J=w1920-h1920-no,Không có,http://www.phunhuan.hochiminhcity.gov.vn/,10.803868,106.68473399999999,Ủy ban nhân dân Quận 5
Trung Tâm Y Tế Dự Phòng Quận 5 - Cs 2,"164 Nguyễn Tri Phương, Phường 9, Quận 5, Thành phố Hồ Chí Minh, Việt Nam",Trung tâm y tế,+84 28 3835 9685,downloaded_images\eeb57737cd33316ef899c29d90c1d3fe.jpg,https://lh3.googleusercontent.com/gps-cs-s/AG0ilSyu7esuPefJmdQUkvZ60McMSnADz_NiPK7plYXhjk2fySlsFYMYvdgG5jo-kdMJRbK22eCP1etCs1mpEDte00gRwzXRy_PoFvdKKeRT8fTg94RQLduLGsAnH1ORwFleuLic7oum=w1920-h1920-no,Không có,https://timbenhvien.vn/chi-tiet/trung-tam-y-te-du-phong-quan-5---co-so-2/766,10.758282099999999,106.6693964,Trung tâm y tế Quận 5
Tt Y Tế Dự Phòng Tp. Hcm,"699 Trần Hưng Đạo, Phường 1, Quận 5, Thành phố Hồ Chí Minh, Việt Nam",Trung tâm y tế,Không có,downloaded_images\2a6c1867c4ed2fe8194eaad441f02749.jpg,https://lh3.googleusercontent.com/gps-cs-s/AG0ilSwH3_zkNJ-7_8zNbebu8XJqKd_3Gihu1ohDcaYAeauu1P4UTVh7LKVkX8bCFEDI0nqzQPNiaHPKxdR1wiaB35mZSvlp8t_qtKJLkUg88DK3yjb6Al33VQfqpZswvhsZZADM6Rea=w1920-h1920-no,Không có,Không có,10.7556576,106.6833267,Trung tâm y tế Quận 5
Trung Tâm Y Tế Phường 10 Quận 5,"225B Trần Hưng Đạo, Phường 11, Quận 5, Thành phố Hồ Chí Minh, Việt Nam",Trung tâm y tế,+84 28 3855 1525,downloaded_images\5aa758a9ff9add614f712972151c9835.jpg,https://streetviewpixels-pa.googleapis.com/v1/thumbnail?panoid=DWEsZJdqWksGbfWvJTZ2ZA&cb_client=search.gws-prod.gps&w=80&h=92&yaw=115.87357&pitch=0&thumbfov=100,Không có,https://tytphuong10q5.medinet.gov.vn/Default.aspx,10.7521458,106.66406789999999,Trung tâm y tế Quận 5
Trạm Y tế Phường 5 Quận 5,"50 Đ. Nguyễn Văn Đừng, Phường 5, Quận 5, Thành phố Hồ Chí Minh, Việt Nam",Bệnh viện,+84 915 959 810,downloaded_images\083f1592ad22565e7eafa43fb1e86e72.jpg,https://lh3.googleusercontent.com/p/AF1QipPbmM1p7uAlQqao7UzYDbiJ2-1zDpmCpQSiE3Rn=w1920-h1920-no,Không có,https://zalo.me/tramyte,10.752023999999999,106.6712416,Trung tâm y tế Quận 5
Bệnh viện Quận 5,"642 A Nguyễn Trãi, Phường 11, Quận 5, Thành phố Hồ Chí Minh 700000, Việt Nam",Bệnh viện chính phủ,+84 28 3855 0235,downloaded_images\eee426659b351c550e06f19681a35bf5.jpg,https://lh3.googleusercontent.com/gps-cs-s/AG0ilSwGa-iTfMP7hrzGCd-YzBbpx6db9W0TGOYXQGJAcceuQY-0lMOiKUAywyB9eoHxL9u1czJyZaB0M9tM5zeOkW5y1oMDh-XMZ6isjSmtBQOWBv6SHHkLlJAT1_r7bFcrGGTaehHsRA=w1920-h1920-no,Không có,Không có,10.754035199999999,106.66581029999999,Trung tâm y tế Quận 5
Trạm Y Tế Phường 9 Quận 5,"Chung cư 100 Hùng Vương, 100 Hùng Vương, Phường 9, Quận 5, Thành phố Hồ Chí Minh, Việt Nam",Trung tâm y tế,+84 28 3833 0549,downloaded_images\ff72dae66ef9e940f54efc408ae4a513.jpg,https://lh3.googleusercontent.com/gps-cs-s/AG0ilSzhN-ZnLrHs5avdNtVAWZLmp6TOktSNCQpRqsna5TRHdIwiYwZI-MqmOrYLA2UXAy4nfiqiglmOKSPe1aMibfU0pDURqqnjX7NSrgDxlcwBZDFstqhQ1j2Rq0Uk4xY9KhkU5DDC=w1920-h1920-no,Không có,https://timbenhvien.vn/chi-tiet/tram-y-te-phuong-9-quan-5/774,10.758111099999999,106.6699905,Trung tâm y tế Quận 5
Trung Tâm Y Khoa Diag,"309 Đường Trần Phú, Phường 3, Quận 5, Thành phố Hồ Chí Minh 72710, Việt Nam",Trung tâm y tế,+84 1900 1717,downloaded_images\84215cb551b11759e63218a5735f6c00.jpg,https://lh3.googleusercontent.com/p/AF1QipOO21d5iBALJhTsM87vZMIFHFYQK56nXPAv7l9c=w1920-h1920-no,Không có,https://diag.vn/,10.75642,106.6734042,Trung tâm y tế Quận 5
Trạm Y Tế Phường 4 Quận 5,"53 Trần Phú, Phường 4, Quận 5, Thành phố Hồ Chí Minh, Việt Nam",Trung tâm y tế,+84 28 3833 0244,downloaded_images\34880ebbd7d6bd702efe813ed2df7003.jpg,https://lh3.googleusercontent.com/gps-cs-s/AG0ilSwQHFLaJQhGDPSG8yOzh4OiyWmnxYs16zS3j7ZSeN0Vv4AwiSeny8ed9E-Aoo_AIeSuZ7dr9wGJQXNtIZ6P7jMtcwQPFdpUmLHQ8qnalPJgO_DqFMwR894Kn1X34QCvK2mNfcUzctrt9Dw=w1920-h1920-no,Không có,https://timbenhvien.vn/chi-tiet/tram-y-te-phuong-4-quan-5/772,10.7618186,106.67854659999999,Trung tâm y tế Quận 5
Trạm Y Tế Phường 7 Quận 5,"282 Trần Phú, Phường 7, Quận 5, Thành phố Hồ Chí Minh, Việt Nam",Trung tâm y tế,+84 28 3923 5243,downloaded_images\c92722b37b311f855467e0f035a6aa48.jpg,https://streetviewpixels-pa.googleapis.com/v1/thumbnail?panoid=4dwRr1NFFIuD5JfkmW1e3g&cb_client=search.gws-prod.gps&w=80&h=92&yaw=319.88757&pitch=0&thumbfov=100,Không có,https://tytphuong8q5.medinet.gov.vn/,10.7567699,106.67317709999999,Trung tâm y tế Quận 5
Trung Tâm Y Tế Quận 5 (Trụ sở 3),"168 Nguyễn Tri Phương, Phường 9, Quận 5, Thành phố Hồ Chí Minh, Việt Nam",Dịch vụ y tế địa phương,Không có,downloaded_images\84a5b40154c66fa2bc77c188091b03db.jpg,https://streetviewpixels-pa.googleapis.com/v1/thumbnail?panoid=tJXLq4dlDwKkb9qd7M409w&cb_client=search.gws-prod.gps&w=80&h=92&yaw=82.70456&pitch=0&thumbfov=100,Không có,Không có,10.7595122,106.66930769999999,Trung tâm y tế Quận 5
Trạm Y Tế Phường 1 Quận 5,"76 Nguyễn Biểu, Phường 1, Quận 5, Thành phố Hồ Chí Minh, Việt Nam",Trung tâm y tế,+84 28 3836 6369,downloaded_images\724af47f3fb3f1d9df4c5a5868b53ff2.jpg,https://streetviewpixels-pa.googleapis.com/v1/thumbnail?panoid=cMkNlZfuIsoVjPuCXjNNew&cb_client=search.gws-prod.gps&w=80&h=92&yaw=9.382302&pitch=0&thumbfov=100,Không có,https://tytphuong1q5.medinet.gov.vn/Default.aspx,10.755133299999999,106.68409369999999,Trung tâm y tế Quận 5
Trung Tâm Y Tế Dự Phòng,"3 Nguyễn Trãi, Phường 2, Quận 5, Thành phố Hồ Chí Minh, Việt Nam",Trung tâm y tế,+84 28 3855 3247,downloaded_images\0c5e896c146caecf23796be4bb5cd7e2.jpg,https://streetviewpixels-pa.googleapis.com/v1/thumbnail?panoid=rQP7HNeh6AJfgvrscwXQgw&cb_client=search.gws-prod.gps&w=80&h=92&yaw=166.73862&pitch=0&thumbfov=100,Không có,Không có,10.759106899999999,106.6834521,Trung tâm y tế Quận 5
Trạm Y Tế Phường 7 Quận 5,"123 Đ. Bùi Hữu Nghĩa, Phường 7, Quận 5, Thành phố Hồ Chí Minh, Việt Nam",Trung tâm y tế công cộng,+84 28 3836 3941,downloaded_images\a69180ee6b46aacab3c16d351c8c67b4.jpg,https://lh3.googleusercontent.com/gps-cs-s/AG0ilSzC-Um7M8SAVlUNqAj8JiMhckzKQxJVrwCAonlMhfRRGIrwRetM_x2ymNiMK70JaLt0lHF2joFULQXqMz5cutqvleQiWU9UI84EkdDHn9BYQe5MsMPLm2j9OIzQFnaxRl2KR9C7=w1920-h1920-no,Không có,https://timbenhvien.vn/chi-tiet/tram-y-te-phuong-7-quan-5/783,10.7540599,106.6745172,Trung tâm y tế Quận 5
Trạm Y Tế Phường 15 Quận 5,"262 Đ. Hồng Bàng, Phường 12, Quận 5, Thành phố Hồ Chí Minh, Việt Nam",Trung tâm y tế,+84 28 3955 6625,downloaded_images\dec182108940f46e667ac9c541375236.jpg,https://lh3.googleusercontent.com/gps-cs-s/AG0ilSxy0VrbyID4FYEtypwXNN2vjj5NIJBHp3-s0eSfg8XnJvS94YFjOW2IxcHRk4rdw_XUn2SyWV9gr1jek8pJXixMLSTKDybztIrjMcZDiQUM-sDJ5XGBSdE2BnGlIs2QsTnUyp2M=w1920-h1920-no,Không có,Không có,10.7538137,106.65315109999999,Trung tâm y tế Quận 5
Bệnh viện Quân Y 7A,"466 Nguyễn Trãi, Phường 8, Quận 5, Thành phố Hồ Chí Minh 700000, Việt Nam",Bệnh viện quân đội,+84 28 3836 6789,downloaded_images\dc82d357cd01e7c4f67693da985f83c4.jpg,https://lh3.googleusercontent.com/gps-cs-s/AG0ilSyAN_eTMnFod-Gz-fGJ280Kk2gwFlK4g2Cx-FCTfiTFHVXGdsqnMcJB4C6XR_HYpzDxqqIrxD2WvCi4RSv672PBz9lMqvF3NoirllB2VbqUrHonE0edsnomu2v-EBfBw2-TrZHhuA=w1920-h1920-no,Không có,http://bvquany7a.vn/,10.755826299999999,106.67095379999999,Trung tâm y tế Quận 5
Bệnh viện Nguyễn Tri Phương,"468 Nguyễn Trãi, Phường 7, Quận 5, Thành phố Hồ Chí Minh 70000, Việt Nam",Bệnh viện,+84 28 3923 4332,downloaded_images\debda3edbbf372d8df883a5d6fc898aa.jpg,https://lh3.googleusercontent.com/gps-cs-s/AG0ilSxzC3y_LETXxjggwfA86vW9pW36O9raeJ-Jel4h0VNPEkRVnPhSSwZEusdNsPdVvZ9b-A855R1mGoo8SL-swbbDz881JTWRpJJIL8pGPMGC_JbO93hDQmEQhfCwQowO7myQ6i3V=w1920-h1920-no,Không có,https://bvnguyentriphuong.com.vn/,10.7550025,106.6705345,Trung tâm y tế Quận 5
Bệnh viện Bệnh Nhiệt đới,"764 Võ Văn Kiệt, Phường 1, Quận 5, Thành phố Hồ Chí Minh 700000, Việt Nam",Bệnh viện chuyên khoa,+84 28 3923 5804,downloaded_images\24487ecd7572107b827d3d8870aacd16.jpg,https://lh3.googleusercontent.com/gps-cs-s/AG0ilSxLKLB_GFzQxu-erHnOaumJH2VvT9fI4M8h6CDT6tcEhTAlx08G5I5BSST-OU3YAeY1Q9f5mLxdezoP4-G5S3SsPO96EAUZT3zMADXSQPfAX1iGheAV3-UjBmfphpgyWBnpGNv0=w1920-h1920-no,Không có,http://www.bvbnd.vn/,10.752660599999999,106.67891639999999,Trung tâm y tế Quận 5
Bệnh viện Chấn Thương Chỉnh Hình,"929 Trần Hưng Đạo, Phường 1, Quận 5, Thành phố Hồ Chí Minh, Việt Nam",Bệnh viện chuyên khoa,+84 28 3923 7007,downloaded_images\2097c3182aac175130a5de1c56c68963.jpg,https://lh3.googleusercontent.com/gps-cs-s/AG0ilSwtKfzG25-gvy69FbR0zjc2Fenj-Jv0lhrB7KFcSJPIT6fQnbE_oKp4Gi-kBfusgPlCRzALYpQtjBwOc6fkBBIpsi_iUSNKAEK14MqL7nzRA2Q0QJGvr-1puRfTI-URXP7T1o8myg=w1920-h1920-no,Không có,http://www.bvctch.vn/,10.7541909,106.67818749999999,Trung tâm y tế Quận 5
Đội Cảnh Sát Giao Thông - Trật Tự - Cơ Động Quận 5,"946 Võ Văn Kiệt, Phường 5, Quận 5, Thành phố Hồ Chí Minh, Việt Nam",Văn phòng chính quyền địa phương,+84 28 3923 4330,downloaded_images\8aa628d650e4a38de71c85769c83761f.jpg,https://lh3.googleusercontent.com/gps-cs-s/AG0ilSyCxzN696S8qTk4I15xauSkl7FlwJZUcjPDWyR5aRpFO0h9LxEMwIQu7y4m64Wa-DEsiDRbTgMO_-fvDWP_VifP0a4MJestJOxJlLOTgUxvxq4cnPrI-qJPvEXUeLstWAkvl-81mKKD0SnS=w1920-h1920-no,Không có,Không có,10.749663799999999,106.67315269999999,Đội Cảnh sát giao thông Quận 5
ĐỘI CHỈ HUY GIAO THÔNG VÀ ĐIỀU KHIỂN ĐÈN TÍN HIỆU GIAO THÔNG - PHÒNG CSGT ĐB ĐS TP. HỒ CHÍ MINH,"171 Nguyễn Biểu, Phường 2, Quận 5, Thành phố Hồ Chí Minh, Việt Nam",Văn phòng chính phủ,+84 28 3837 7137,downloaded_images\f9586e1ea5bb7c2c4261e8f87c1f0894.jpg,https://lh3.googleusercontent.com/gps-cs-s/AG0ilSxmJEKqMGovU9bEljMDufLgEUgSiSmsNX_w8WwC5j6o-VpiVsrCV72h7ZxD9fE_XSM5TKZFtUuE1No7-TidFuNP1OBhd240TzJi7BlQS4BSqO-Wj50Z_JHF2yA9EtCvan8cl7VOkg=w1920-h1920-no,Không có,Không có,10.7566236,106.6832936,Đội Cảnh sát giao thông Quận 5
Đội PCCC & CNCH Quận 5,"1350 Võ Văn Kiệt, Phường 13, Quận 5, Thành phố Hồ Chí Minh, Việt Nam",['Trạm cứu hỏa'],Không có,downloaded_images\1254d24269156dc0afea25ad51c06e8e.jpg,https://lh3.googleusercontent.com/gps-cs-s/AG0ilSzvs8aftEUw0apHPhbrkfQpoyfafwc6Wz-wjgzpHJs3gN4qLle-teWJp2ZwscybxTwXxpNoCGw9L2gksoeWcJQAD042s5LuGb02mMFCNiZ8V6dtu1bjYFjwWVx7feJeE8WuWco=w1920-h1920-no,Không có,Không có,10.7476146,106.6562278,Đội Cảnh sát PCCC và CNCH Quận 5
Công Chứng Hoàng Xuân Ngụ,"198A Đường Trần Bình Trọng, Phường 4, Quận 5, Thành phố Hồ Chí Minh, Việt Nam",Công chứng viên,+84 28 3836 6699,downloaded_images\4f113990a8d5a04cf26e9061b436e40c.jpg,https://lh3.googleusercontent.com/gps-cs-s/AG0ilSxjOpphsGH4vZ3-NE4R377kODh9eRUxL5J5yLW_swNeg2ni3ZI2khxfpUbfd4gbmeQsdo1MIlJCtY18wvhJ0MHvALT8HyD_G5iS4ri7vTuxoZK4taPiMDCho5ojah1xu9MT81o=w1920-h1920-no,Không có,http://www.congchunghoangxuan.vn/,10.7604927,106.68007999999999,Phòng công chứng Quận 5
Phòng Công chứng số 2,"94-96 Đ. Ngô Quyền, Phường 7, Quận 5, Thành phố Hồ Chí Minh, Việt Nam",Công chứng viên,+84 28 3855 1717,downloaded_images\06bf9723d665713ba033993edbd93cce.jpg,https://lh3.googleusercontent.com/gps-cs-s/AG0ilSwnA8h015XBjht9lLQN3EUm0hDo06h0M3NacqDxTKuYBHAsvApPVL1--SRMMEIbqqbdQpUoIO4YCFxaYBR2VvMnrBMnXuHosA5LbPLsmI-m60EjyGcrLnJ0FcQj6ne2eROS1UID9g=w1920-h1920-no,Không có,http://congchung2tphcm.com/,10.753497399999999,106.66673929999999,Phòng công chứng Quận 5
Văn phòng Thừa Phát Lại Quận 5,"805 Trần Hưng Đạo, Phường, Chợ Quán, Thành phố Hồ Chí Minh, Việt Nam",Người tống đạt trát tòa,+84 28 3924 6808,downloaded_images\664a30205d45ddb769b607bc40c2bec5.jpg,https://lh3.googleusercontent.com/p/AF1QipMqHNXPsYzM0fE4IvYSpJRd65On95VoaAcFPq8O=w1920-h1920-no,Không có,https://thuaphatlaicholon.vn/,10.755162799999999,106.6810189,Phòng công chứng Quận 5
VĂN PHÒNG CÔNG CHỨNG CHỢ LỚN,"467 Đ. Hồng Bàng, Phường 14, Quận 5, Thành phố Hồ Chí Minh 70000, Việt Nam",Công chứng viên,+84 909 769 768,downloaded_images\3973a9b5bcb506dbca41e72419f0f900.jpg,https://lh3.googleusercontent.com/p/AF1QipNv4aW0MNvVwOnLDZnssctwpakVyUWWoyFLJRgo=w1920-h1920-no,Không có,http://congchungcholon.vn/,10.753603199999999,106.6543794,Phòng công chứng Quận 5
Văn phòng Công chứng Hoàng Xuân Hoan,"187 An Dương Vương, Phường An Đông, Quận 5, Thành phố Hồ Chí Minh, Việt Nam",Công chứng viên,+84 901 369 797,downloaded_images\9f391f12087dddd0e150cb78082ad7bf.jpg,https://lh3.googleusercontent.com/gps-cs-s/AG0ilSway5m3JhfpxsZM6JqKJZLHHaSAi585LNxtMlakEL3wLrTAqrCfqtZN20qQajmFqyi4FMPUfe5epMtZ9ALEF1pFc9wC8ZLGgrEuFg8phF2--Rq46uHnANqB0X4R-mwAhpT21ieb=w1920-h1920-no,Không có,http://congchunghoangxuanhoan.com/,10.7562953,106.6688684,Phòng công chứng Quận 5
Phòng Công Chứng Số 5,"278 Đ.Nguyễn Văn Nghi, Phường 1, Gò Vấp, Thành phố Hồ Chí Minh, Việt Nam",Công chứng viên,+84 28 3894 3327,downloaded_images\028d8cc15cf1518a65afbdf1854a33ee.jpg,https://lh3.googleusercontent.com/gps-cs-s/AG0ilSzQXqOWx2_FnM8Lxu1qSclKCzSJ-tAcT9b11qhBbl3TTW8vjBrXxMKNhm6j2LhTsgMwTSzfZRL_Kd0xDNZbzn-ipWzkKTNkVXKCdAr-OF48feONMyDjUtiLZVYsjdDRMnslW0u6=w1920-h1920-no,Không có,https://sotuphap.hochiminhcity.gov.vn/gt-cc5,10.8257627,106.68444439999999,Phòng công chứng Quận 5
Văn Phòng Công Chứng Nguyễn Văn Lâm,"426 Trần Hưng Đạo, Phường 11, Quận 5, Thành phố Hồ Chí Minh, Việt Nam",Công chứng viên,Không có,downloaded_images\3e6bd14085d525d74f704671d090d551.jpg,https://streetviewpixels-pa.googleapis.com/v1/thumbnail?panoid=8ZBwkbuAYKmj2GPYX71x0Q&cb_client=search.gws-prod.gps&w=80&h=92&yaw=7.4478736&pitch=0&thumbfov=100,Không có,Không có,10.7521782,106.6594701,Phòng công chứng Quận 5
Công An Quận 6,"114 Đ. Phạm Văn Chí, Phường 1, Quận 6, Thành phố Hồ Chí Minh, Việt Nam",['Sở cảnh sát'],+84 28 3967 0694,downloaded_images\d60d383f3b562ea3b148be8171f2fe55.jpg,https://lh3.googleusercontent.com/gps-cs-s/AG0ilSxQ9lptEQ-mZnVCBTBdYf14rAea3EAj-TlyJV6ZmvX5UN11RkjC2MXifigjCzczmSkX_KltSrPJ86XODdIecaTh6ibnp5chXOWQcB-axhvfeWbqcnk9kyuCVgi-Qv0MjhHh7fhN=w1920-h1920-no,Không có,http://www.quan6.hochiminhcity.gov.vn/,10.746412099999999,106.6488978,Công an Quận 6
UBND Phường Bình Tiên,"107 Đ. Cao Văn Lầu, Phường 1, Quận 6, Thành phố Hồ Chí Minh, Việt Nam",Văn phòng chính quyền địa phương,+84 28 3855 9847,downloaded_images\81b87cc82b16ea4cef50b4b71df16af2.jpg,https://lh3.googleusercontent.com/gps-cs-s/AG0ilSwfZkz8WGixCMy-nciHZqQCSwjyuw3KGSw0zJtYP47D1IRStatf4ADJiBShyL803VET_s6fAqtNSnEmCGTGyJkKc7uNwPiDBX2qyuFVaaSplCiQjnPqv2SrsKT8GQGCJ6-x9vA=w1920-h1920-no,Không có,http://www.quan6.hochiminhcity.gov.vn/,10.7466025,106.6491769,Ủy ban nhân dân Quận 6
UBND Phường 9 Quận 6,"429 Đ. Lê Quang Sung, Phường 9, Quận 6, Thành phố Hồ Chí Minh, Việt Nam",Văn phòng chính quyền địa phương,+84 28 3969 1163,downloaded_images\05f3039c2216aca7f5ba2d30eb95ac2b.jpg,https://lh3.googleusercontent.com/gps-cs-s/AG0ilSxAjYn2CF2XaYGyXlF8F_ja4jPMRpLMHzvEOUENRGe46Fnoh5ouODNX1veP_LTn0NSlrKez0NVV7CJJ2MCl5FfVpSIIsFfCgujXhzpVo3uI-CgAsO3wsfTgdxRST4_LhVz0DTWqMw=w1920-h1920-no,Không có,Không có,10.7517859,106.6399771,Ủy ban nhân dân Quận 6
Trung tâm Y tế Quận 6,"A14/1 Bà Hom, Phường 13, Quận 6, Thành phố Hồ Chí Minh, Việt Nam",['Trung tâm y tế'],+84 28 3877 6546,downloaded_images\fe0920a838bca6e7e38fd73dfb8746f3.jpg,https://lh3.googleusercontent.com/gps-cs-s/AG0ilSwpB6JgEiKupCErX5HJbuI6nO4x-tzwdWqESQroJtfz4SYIsZGkkeMb_r6uWeKAtdnuj6iwxdqT9F3Re5-8KQmAHXlK-841kyZykMc8keoGnyFr_laPgcWU-UidZnBEkuwwywixHQ=w1920-h1920-no,Không có,Không có,10.7544228,106.6294253,Trung tâm y tế Quận 6
Bệnh viện Quận 6,"Đ. Chợ Lớn, Phường 11, Quận 6, Thành phố Hồ Chí Minh, Việt Nam",,Không có,downloaded_images\5a3c06b10b38b6bcef12c53051794993.jpg,https://lh3.googleusercontent.com/gps-cs-s/AG0ilSx4BRzbfc_GIu8BG7N1edx7id0F8ZkLGDXOhsVJmF1L0TFkwCpuoYPCzdFXHgQfEHFpEIruruchO7xsvK-NmVm1NyEBAD4NfG6aA8dH6F9mJOxYhSQSAX7A4y2aZY3J3I3JJVC6WQ=w1920-h1920-no,Không có,Không có,10.7465528,106.6345645,Bệnh viện Quận 6
Trụ sở Đội CSGT Quận 6,"PJXQ+GFW, Phường 11, Quận 6, Thành phố Hồ Chí Minh, Việt Nam",Sở cảnh sát,Không có,downloaded_images\5eb4f37cedf4bdf3d9959a3aadbadeaa.jpg,https://lh3.googleusercontent.com/gps-cs-s/AG0ilSyEyG_Kk4dLtxgPjyxBWkKfd1hAQKZe4-Vjc9rb-z0AzIEdg3t9IO_THRVIEN95o-IX-DVfm_V4qYiJZEDTfFL8ecn_z85e0GJwnFX2pY9tjjhCzdnUjm-4g0fNASWy2n-8TKMm6g=w1920-h1920-no,Không có,Không có,10.7488534,106.6387012,Đội Cảnh sát giao thông Quận 6
Đội CC & CNCH Khu Vực 6,"149 Đ. Cao Văn Lầu, Phường 1, Quận 6, Thành phố Hồ Chí Minh, Việt Nam",Trạm cứu hỏa,Không có,downloaded_images\ddae9c508319c2d27d0a41fa1e5b93b0.jpg,https://lh3.googleusercontent.com/gps-cs-s/AG0ilSx5_aQUF5YrweCGThOZkVul45tgMni0VC5-nkUNT7-BKbz6pxav2KQC9ChEiA4wgQNZLkJAc_Hli8XMSX6N41l90JHcoauF1dULkJyRR3FLcVpnDi2cN9xRniYn11GemWKeg-9N=w1920-h1920-no,Không có,Không có,10.747585599999999,106.6490068,Đội Cảnh sát PCCC và CNCH Quận 6
Đội cảnh sát PCCC vs CHCN Công An Quận Bình Tân,"624 Đ. Kinh Dương Vương, An Lạc, Bình Tân, Thành phố Hồ Chí Minh, Việt Nam",Đồn cảnh sát,Không có,downloaded_images\063fa7c38f35fbbb792a251f6f73d074.jpg,https://lh3.googleusercontent.com/gps-cs-s/AG0ilSzaf-jALYf87b-9pWxc8qtk0Rj79WGqO8PhcjAx7OSTDUk-_lOD22Nvr9Z4UgfO3NXu845r3wVn2uous7xm15j2wipB6GrvqsbVn2Uc_tdYBOlsBlRRUupHzhkUl-f0GnSrZlzL=w1920-h1920-no,Không có,Không có,10.729418599999999,106.60794849999999,Đội Cảnh sát PCCC và CNCH Quận 6
Đội PCCC & CNCH Quận 11,"225 Đ. Lý Thường Kiệt, Phường 15, Quận 11, Thành phố Hồ Chí Minh, Việt Nam",Trạm cứu hỏa,Không có,downloaded_images\59d63546ab19036b3d31b8c7bddec564.jpg,https://lh3.googleusercontent.com/gps-cs-s/AG0ilSzFvcgS7U9CvR_iZbN2T4DNILMinoMs3yzjRxreDt20UVdL-eLASNzJbt9GZQKsL5yjaH81Dg8qDf61GxDqEw7wmflIP8r8WTDglmitH9CCpt6tv5sK1RxQcHafOlZ1FMRukm99=w1920-h1920-no,Không có,http://www.pccc.hochiminhcity.gov.vn/,10.7707138,106.6577578,Đội Cảnh sát PCCC và CNCH Quận 6
ĐỘI CC&CNCH KHU VỰC 17,"119 Đ. Phổ Quang, Phường 9, Phú Nhuận, Thành phố Hồ Chí Minh, Việt Nam",Trạm cứu hỏa,+84 28 3836 4759,downloaded_images\097882b44be7eede48e18692dc6b9f33.jpg,https://lh3.googleusercontent.com/gps-cs-s/AG0ilSwn-yz1Q2wG4gksgKZjGLoZuLHiHln0M_oT1oVgJpmviPBbhs0Xc1n34-zo_c05ecqijHcPmuDeSkyUa7MBBI7jfNV1Jy7xpKiMuDR_VpfQpjYSLg-D4BX3XpLc3-t_RITPw0J99Q=w1920-h1920-no,Không có,Không có,10.8083821,106.67238239999999,Đội Cảnh sát PCCC và CNCH Quận 6
Phòng Công Chứng Số 7,"388 Đ. Nguyễn Văn Luông, Phường 12, Quận 6, Thành phố Hồ Chí Minh, Việt Nam",Công chứng viên,+84 28 3877 9584,downloaded_images\aef682586642e2c51017011d596bf1d3.jpg,https://lh3.googleusercontent.com/gps-cs-s/AG0ilSynSg7y-_lQhOmK2_zk2eAXVm2VRij6X6WNi05bug02JKPRvxj3gKhdPeG2N-lYbawrXvT3HWoVq6Ji6fKzYjH90cntLCR4sJLN5TPs8FT0nT_I7eqSDo8zwwFdkaaeZUBj2DIqag=w1920-h1920-no,Không có,https://sotuphap.hochiminhcity.gov.vn/gt-cc7,10.751175,106.635407,Phòng công chứng Quận 6
Phòng Công Chứng Số 6,"47A Nguyễn Văn Đậu, P.6, Bình Thạnh, Thành phố Hồ Chí Minh, Việt Nam",Công chứng viên,+84 28 6297 6822,downloaded_images\3513c65cd3bd7883b39a188fe23b76d8.jpg,https://lh3.googleusercontent.com/gps-cs-s/AG0ilSxrGmVzQXelXmc1BU8C8blllnBPpgCEEvK5DRs94v91ARRia2cn1CibnJm_LVK1xgTO9m-x0dZaNFX9Aplz8VniPkpF9Ey4LQRrAhpNn25N0q-DJopgWx3gPeOMg0ZSV4vKBwOhUg=w1920-h1920-no,Không có,http://congchung6.gov.vn/,10.807166599999999,106.6871733,Phòng công chứng Quận 6
Công an Quận 7,"1366 Huỳnh Tấn Phát, Phú Mỹ, Quận 7, Thành phố Hồ Chí Minh, Việt Nam",['Cảnh sát dân sự'],+84 28 3785 1787,Không có,,Không có,Không có,10.7109638,106.73689069999999,Công an Quận 7
UBND Quận 7,"7 Tân Phú, Quận 7, Thành phố Hồ Chí Minh, Việt Nam","['Văn phòng chính quyền địa phương', 'Văn phòng chính phủ']",+84 28 3785 1032,downloaded_images\e4b4f8cb5c38d258b3fccdd34e9f348b.jpg,https://lh3.googleusercontent.com/gps-cs-s/AG0ilSzbIryY_Y700aXLpHDMMQN8kfAvoF6aaSjK0o6zzRPB_yooI6nw2ykspYxqVmElXGjzUyTZPszN9QUP0AZg8gSs9NIKcM71RnBAo01pbVg9sBrN_-MGwHasJXkfVpJ_WNnwE3Cc=w1920-h1920-no,Không có,Không có,10.7323285,106.7266394,Ủy ban nhân dân Quận 7
Thiết bị y tế Quận 7,"101 Đ. Nguyễn Thị Thập, Tân Phú, Quận 7, Thành phố Hồ Chí Minh, Việt Nam",Trung tâm y tế,+84 28 3773 2791,downloaded_images\86ad1c677b99089f68c691163c4797f2.jpg,https://lh3.googleusercontent.com/gps-cs-s/AG0ilSwueyKjKFUCm0-5hOcCObeIJprl3tzmQBm6TOaz0sJccWOADJUswHFyMmyBnCIgNuHFHZ718W16faoQptHfPIKJ6UkiDSK953f2aERLGHci6GbhGfnzJXPFmp0DOiAFbPQ7GUQ=w1920-h1920-no,Không có,http://trungtamytequan7.medinet.gov.vn/,10.7377564,106.72353609999999,Trung tâm y tế Quận 7
Trạm Y Tế Phường Tân Phú Quận 7,"1 Đ. số 9, Tân Phú, Quận 7, Thành phố Hồ Chí Minh, Việt Nam",Trung tâm y tế,+84 28 3771 0343,downloaded_images\b85d981427c84da14d04e9bcee2829fd.jpg,https://lh3.googleusercontent.com/gps-cs-s/AG0ilSx-uvPLPM4ytwEuY6kZmO_Wjvf3mAkcrwTdBDYt2OzCHyhfeNVMp-rpREM1lNasurGlP8NiHeFdE2dQWWtmS4LoZb1do0gmF-xlNoxMbWwTpP6cwifITWSdlkGDTnjVoFN9FNfJ=w1920-h1920-no,Không có,Không có,10.7357511,106.7195122,Trung tâm y tế Quận 7
Trạm Y Tế Phường Tân Kiểng Quận 7,"98 Đ.13, Tân Quy, Quận 7, Thành phố Hồ Chí Minh, Việt Nam",Trung tâm y tế,+84 28 3771 3575,downloaded_images\0299c24541a7c3f0aae5320cbfa2be91.jpg,https://streetviewpixels-pa.googleapis.com/v1/thumbnail?panoid=VmbIkO27upEdkYUDG77uJQ&cb_client=search.gws-prod.gps&w=80&h=92&yaw=357.22253&pitch=0&thumbfov=100,Không có,Không có,10.746069199999999,106.7072865,Trung tâm y tế Quận 7
Đội Cảnh Sát Quản Lý Hành Chính Quận 7,"1366 Huỳnh Tấn Phát, Phú Mỹ, Quận 7, Thành phố Hồ Chí Minh, Việt Nam",['Văn phòng chính phủ'],+84 28 3983 2190,downloaded_images\9bc49723055c69468a76718ac5114d1c.jpg,https://lh3.googleusercontent.com/gps-cs-s/AG0ilSzZibfJB4LNKWJeu2NtDa9XqPIudcGXyYHT2P8QRLynAEM7MfZ7f7Fcu7UPz2SABcIrD78rsR32Cz5E3OmlaahC_ZVOrZI2AgtXDFJrhNjkRoZsUYv8GwfhQxQd4CIZAYPcDy0nsCheg_O4=w1920-h1920-no,Không có,Không có,10.7109927,106.736892,Đội Cảnh sát giao thông Quận 7
Đội PCCC & CNCH Quận 7,"1181 Đường Nguyễn Văn Linh, Tân Phong, Quận 7, Thành phố Hồ Chí Minh, Việt Nam",Trạm cứu hỏa,+84 28 3775 3781,downloaded_images\765205a5301de3172ddf800c7dec3684.jpg,https://lh3.googleusercontent.com/gps-cs-s/AG0ilSwcx-Xl2sS1oknytzw5JJplscjJBwCL7e6O4RtYm0UeBKMkHtRPhYFRpd3-sZt9tVgkFXd0AFYW1bQZUZstYm4-hRaTixJuMLPdIAoY13hMP0oMAL_xFLchU3puwbMrk4aDifxkM7lmBMJL=w1920-h1920-no,Không có,Không có,10.7279508,106.7029469,Đội Cảnh sát PCCC và CNCH Quận 7
Cảnh sát PCCC Quận 7,"PPH3+536, Đường Nguyễn Văn Linh, Tân Phong, Quận 7, Thành phố Hồ Chí Minh, Việt Nam",Trạm cứu hỏa,Không có,downloaded_images\24bd9f6287f265cbfcd5fe4910c30607.jpg,https://lh3.googleusercontent.com/gps-cs-s/AG0ilSyAUATm4_AL5ZcsXqh7vfySieX5NjsWuk3lCAz_dQk_CGFNU3P6FRbM83QBInEqBFmurfQYqlIP9UC5F5phQxXSKR24skEP1cPxJdBIKYLxyAVDqR4VcgpZpcJiofsF7_tLSWsk=w1920-h1920-no,Không có,Không có,10.7279033,106.70263589999999,Đội Cảnh sát PCCC và CNCH Quận 7
Văn Phòng Công Chứng Nguyễn Đức Hưng,"10 Cao Triều Phát, Tân Phong, Quận 7, Thành phố Hồ Chí Minh, Việt Nam",Công chứng viên,+84 985 675 979,downloaded_images\9850163aa77f54f0928e5aa778cbb521.jpg,https://lh3.googleusercontent.com/gps-cs-s/AG0ilSxIZljXrUG3dRb5A87Q-PbgtvndGnY--VUylNDWmzWVo3AZ9kVFCb6UCXPRBp8ehg_qgl2F20gvNS8xW6yu7gyR5JVOvyjArfUNKWGDSOUzUHISjyIN0qjnfPS4EHm_5GktVcv0uqFAF5Q=w1920-h1920-no,Không có,http://congchungnguyenduchung.com/,10.7321022,106.7100152,Phòng công chứng Quận 7
Văn phòng Công chứng Tân Thuận,"448 Đường Nguyễn Văn Linh, Phường Tân Mỹ, Quận 7, Thành phố Hồ Chí Minh, Việt Nam",Công chứng viên,+84 28 3771 3108,downloaded_images\d01423c340a0333af6cc088cfd879723.jpg,https://lh3.googleusercontent.com/gps-cs-s/AG0ilSz1j_U4fCn8wDj6vPBqGeif_75NWv_pd41_YrD8aslLO_XORk--dfNznpDZ7ipP-guUweKyPSFLvPo4OQfCmGH22ZQpRsdWHlvT00vLthOZLXLEuAE4KT4PB_xOqV0KYFBt2RjLvw=w1920-h1920-no,Không có,https://www.facebook.com/congchungtanthuan/,10.7373361,106.7212873,Phòng công chứng Quận 7
VĂN PHÒNG CÔNG CHỨNG BÙI THỊ XUÂN,"612A Huỳnh Tấn Phát, Tân Phú, Quận 7, Thành phố Hồ Chí Minh, Việt Nam",Công chứng viên,+84 827 787 413,downloaded_images\88c623d611f9010828617c428fb50f96.jpg,https://lh3.googleusercontent.com/p/AF1QipPHOE7MIQ5H8bIWPJe6PP2Wol7QADloVD4yIQU=w1920-h1920-no,Không có,http://congchungbuithixuan.com/,10.7349795,106.730685,Phòng công chứng Quận 7
Văn phòng Công chứng Phú Mỹ Hưng,"NL 29 (D3), KBT Ngân Long, Đường Nguyễn Hữu Thọ, Phước Kiển, Nhà Bè, Thành phố Hồ Chí Minh, Việt Nam",Công chứng viên,+84 28 3781 7942,downloaded_images\a02eb1534c68aa423a9812b6b803e32b.jpg,https://lh3.googleusercontent.com/gps-cs-s/AG0ilSwR-rPChQe9iVo3rLm3K9b2onmldFUmIHHUGypl5OLmoAs8XEJeGqhi6DBiJz9xZGBSz8VdQcscXORkVjatN2VK4sSx7Vn-cE89-gJT26fY-0A8i2OrzNQ23twAscK40I-H9XPPVA=w1920-h1920-no,Không có,http://congchungphumyhung.vn/,10.718328999999999,106.70277469999999,Phòng công chứng Quận 7
Văn Phòng Công Chứng Phước Thịnh,"58 Đ. Nguyễn Tất Thành, khu phố 3, Quận 7, Thành phố Hồ Chí Minh, Việt Nam",Công chứng viên,Không có,downloaded_images\0d796bca0856f2b3a586b0837c296a7c.jpg,https://streetviewpixels-pa.googleapis.com/v1/thumbnail?panoid=Izye5Vf_naIQq1aeuLXIvw&cb_client=search.gws-prod.gps&w=80&h=92&yaw=224.18369&pitch=0&thumbfov=100,Không có,Không có,10.7594128,106.7104854,Phòng công chứng Quận 7
Văn Phòng Công Chứng Dương Thị Cẩm Thủy,"02 Đ. Số 41, Tân Phú, Quận 7, Thành phố Hồ Chí Minh, Việt Nam",Công chứng viên,Không có,downloaded_images\a5bbbc8d406b9f3e2a11b9a7f7fe1818.jpg,https://streetviewpixels-pa.googleapis.com/v1/thumbnail?panoid=wS6UnFaGV1tIsBWkiEfStA&cb_client=search.gws-prod.gps&w=80&h=92&yaw=165.38205&pitch=0&thumbfov=100,Không có,Không có,10.7580194,106.7000109,Phòng công chứng Quận 7
Công An Quận 8,"993 Phạm Thế Hiển, Phường 5, Quận 8, Thành phố Hồ Chí Minh, Việt Nam",['Đồn cảnh sát'],Không có,downloaded_images\2ff10cb158c1fc95ee981d99fbe602aa.jpg,https://lh3.googleusercontent.com/gps-cs-s/AG0ilSwcYzIYU2jkNbkoJfHhcrDe9PscVFqUuf5gsgYlqAFQMAXov9ZDaDpjfX9LPuz02GIA6ZHfhyhX0DmkOON6JbyEWmTQa4oOIUFUvpe0bJIgIOp6ATXwrWXsop5TkZD852if4qU=w1920-h1920-no,Không có,Không có,10.742264299999999,106.66781689999999,Công an Quận 8
Quận ủy Quận 8,"997 Phạm Thế Hiển, Phường 5, Quận 8, Thành phố Hồ Chí Minh, Việt Nam",Văn phòng chính phủ,Không có,downloaded_images\ed86d3b774611ba99ff871294ac36d60.jpg,https://lh3.googleusercontent.com/gps-cs-s/AG0ilSx2vX_zy8IfIn8EYHP9U5jcOk0ZGLkBJapw1n8khQMURjWZDcznHjMxf5h8mNqmlIQw7EyE03x8U9LwTkDN8txIIDgluUry0JloT9qvd7iCwdCwUIt1PmmvPMdc1TDXLhPLiF9a=w1920-h1920-no,Không có,Không có,10.7415652,106.66505339999999,Ủy ban nhân dân Quận 8
UBND Phường 16 Quận 8,"450 Phú Định, Phường 16, Quận 8, Thành phố Hồ Chí Minh, Việt Nam",Văn phòng chính quyền địa phương,+84 28 3980 3669,downloaded_images\c103be80134f835dc7b9eeb1bd950995.jpg,https://lh3.googleusercontent.com/gps-cs-s/AG0ilSymJwXWSMPORFlyQ0uEj9C8_wDGEmF07jIFFbNjlKdRdffZhcS9VpzXGZKry5fuUvBN36wE0FPz0HSafxcrgN66OhNk0UwszPDRYbAMIHj_52_0NxrMlvPMJNGXraYsurwhpgEu=w1920-h1920-no,Không có,Không có,10.7121927,106.6234973,Ủy ban nhân dân Quận 8
Phòng Tài Chính – Kế Hoạch Quận 8,"Ủy Ban Nhân Dân Quận 8, 4, Đường 1011 Phạm Thế Hiển, Phường 5, Quận 8, Thành Phố Hồ Chí Minh, Phường 5, Quận 8, Thành phố Hồ Chí Minh, Việt Nam",Văn phòng chính quyền địa phương,+84 28 5431 4326,downloaded_images\f75ba6411e3ab7981c50d7c9bca5350a.jpg,https://streetviewpixels-pa.googleapis.com/v1/thumbnail?panoid=1y-7sTLle3Cm8X4lr970KQ&cb_client=search.gws-prod.gps&w=80&h=92&yaw=250.20944&pitch=0&thumbfov=100,Không có,http://www.quan8.hochiminhcity.gov.vn/,10.7409084,106.6656479,Ủy ban nhân dân Quận 8
Phòng Lao Động Thương Binh - Xã Hội Quận 8,"Ủy Ban Nhân Dân Quận 8, 4, Đường 1011 Phạm Thế Hiển, Phường 5, Quận 8, Thành Phố Hồ Chí Minh, Phường 5, Quận 8, Thành phố Hồ Chí Minh, Việt Nam",Văn phòng chính quyền địa phương,+84 28 5431 4306,downloaded_images\ffbb89f8cd81b10624684796df424998.jpg,https://streetviewpixels-pa.googleapis.com/v1/thumbnail?panoid=oDUWClx2W6SH9pJhnivAeQ&cb_client=search.gws-prod.gps&w=80&h=92&yaw=248.46605&pitch=0&thumbfov=100,Không có,http://www.quan8.hochiminhcity.gov.vn/,10.7410243,106.6657233,Ủy ban nhân dân Quận 8
Ủy Ban Nhân Dân Phường 6 Quận 8 Điểm Sinh Hoạt,"34 Bùi Minh Trực, Phường 6, Quận 8, Thành phố Hồ Chí Minh, Việt Nam",Trung tâm cộng đồng,Không có,downloaded_images\3dbcf2bc42eeddd28d9cbdec75a16344.jpg,https://streetviewpixels-pa.googleapis.com/v1/thumbnail?panoid=Vd5hJqRyqE_dOp2nmKHK3w&cb_client=search.gws-prod.gps&w=80&h=92&yaw=343.75848&pitch=0&thumbfov=100,Không có,Không có,10.7370513,106.6543923,Ủy ban nhân dân Quận 8
Trung tâm Y tế Quận 8,"28 Đ. Số 1, Phường 6, Quận 8, Thành phố Hồ Chí Minh, Việt Nam",Trung tâm y tế,+84 843 999 079,downloaded_images\d3275d98eaa38a1ce58b3814ed8266f9.jpg,https://lh3.googleusercontent.com/gps-cs-s/AG0ilSyNgBbUnxjkzylWjmAoWc70ZB_19TYpM2ur2EZ2my6RfVm-kznhflVLnRyoolLO-bRVdw6EBnrfbq9PXoqN-wJdHLi-K4t9o-h98d6Cs2TmkJ6CjLtt8xM9LS5iZZZFL5vjFtbcqP3SbwmM=w1920-h1920-no,Không có,https://trungtamytequan8.medinet.gov.vn/,10.735079899999999,106.6524058,Trung tâm y tế Quận 8
Trung Tâm Y Tế Quận 8,"170 Đ.Tùng Thiện Vương, Phường Xóm Củi, Quận 8, Thành phố Hồ Chí Minh, Việt Nam",Dịch vụ y tế địa phương,Không có,downloaded_images\5811f2ebad779df85c92f94a10ed0af8.jpg,https://lh3.googleusercontent.com/gps-cs-s/AG0ilSxJZzYJeyOHeefllOg-6t84AGdqrsx_NVsMSyjgtKzX0UgE2rsYTOOm5wyFzCq5hSPWGS7jokGKaa6C7iEI_Y93CMv2D8q_nbtRLofy8TTxiszkMYzW1TgWP3SipPH33D4rJ79P0Xiy-g8B=w1920-h1920-no,Không có,Không có,10.7478597,106.663359,Trung tâm y tế Quận 8
Trung Tâm Y Tế Dự Phòng Quận 8,"Chung cư Ngọc, 314 Âu Dương Lân, Phường Rạch Ông, Quận 8, Thành phố Hồ Chí Minh, Việt Nam",Bệnh viện,+84 28 3850 0648,downloaded_images\f51e5ef7a159c7e87340a22d56383076.jpg,https://streetviewpixels-pa.googleapis.com/v1/thumbnail?panoid=QRn9Nzkkvz9ymouzWA6KKQ&cb_client=search.gws-prod.gps&w=80&h=92&yaw=62.4392&pitch=0&thumbfov=100,Không có,Không có,10.7431099,106.6846668,Trung tâm y tế Quận 8
Trung tâm Y tế Quận 8,"7-8 Dương Bạch Mai, Phường 5, Quận 8, Thành phố Hồ Chí Minh, Việt Nam",Trung tâm y tế,Không có,downloaded_images\4be77e86877698675f207ae181cabc19.jpg,https://lh3.googleusercontent.com/gps-cs-s/AG0ilSzn2fvi5Dhw6tquq63Jde5yeLf4mzBCdkyREcUjr9ikOIjNjmmdOGkoOFdiA9dnJoeOvnZ6kepu8n7-01JmOXuQiFNHHq4ffMiDhWLMYGKTGbb-dI3q7G4eKpXywhQ0Oif-iv-Y=w1920-h1920-no,Không có,Không có,10.7387488,106.6655299,Trung tâm y tế Quận 8
Trạm Y Tế Phường 6 Quận 8,"1663 Phạm Thế Hiển, Phường 6, Quận 8, Thành phố Hồ Chí Minh, Việt Nam",Trung tâm y tế,+84 28 3981 4973,downloaded_images\fdb346a16344ccdf6aec49dc9f57c7d1.jpg,https://lh3.googleusercontent.com/gps-cs-s/AG0ilSw73rhULZSxHi43P0PEw4VQvONlDHvInq93RuGa4Ajn0qeuowQq9QvLwYW1-aFf23d696S_06_XukUWZC95KHc4t9WA9s7u2lPqtK4omaJChSwesi_2DX8R5iYy5vX63Wtq0IQUag=w1920-h1920-no,Không có,https://timbenhvien.vn/chi-tiet/tram-y-te-phuong-6-quan-8/1331,10.7382098,106.65214259999999,Trung tâm y tế Quận 8
