Ten,Dia chi,Loai,So dien thoai,Hinh anh,Link Anh Goc,Gioi thieu,Website,Lat,Lng,Tu khoa goc
Cục Quản Lý Xuất Nhập Cảnh TP. HCM,"337 Nguyễn Trãi, Phường Nguyễn Cư Trinh, Quận 1, Thành phố Hồ Chí Minh, Việt Nam",Phòng visa và hộ chiếu,+84 28 3920 1701,downloaded_images\c33085fecbfd960d4943453caa625a66.jpg,https://lh3.googleusercontent.com/gps-cs-s/AG0ilSy4PzFj2q1rlIb3Fod6pFUDOXSNSLT0_2YSSopkW0TkOpd80sTtoWG3CNltPnrGNlqZYPFJ-u_wmw-ghExtVK-ZvasaVfBK9QRUAvgfMOsvBI190wtENSw5oHfbxyknvZP59cEW=w138-h92-k-no,Không có,https://hochieu.xuatnhapcanh.gov.vn/,10.7614574,106.6861867,Cục Quản lý Xuất nhập cảnh tại TPHCM
Phòng Quản Lý Xuất Nhập Cảnh TP. HCM,"196 Nguyễn Thị Minh Khai, Phường 6, Quận 3, Thành phố Hồ Chí Minh, Việt Nam",Phòng visa và hộ chiếu,+84 28 3829 9398,downloaded_images\4abfc19d925c06b393ce091c3bc1a24c.jpg,https://lh3.googleusercontent.com/gps-cs-s/AG0ilSzWps6wolFkTNVmpyrZMAMLvN74g-NJaOvVNCXM0mecAHzbvIt3quCy_W9h1sDsAdwgoW8XR5zhahyfSqAYh7pGJFbEF2JqWdeUJdQi6l_zuzbbrTpVEWcnS54jAt2eHhQi6H7-=w80-h142-k-no,Không có,https://xuatnhapcanh.gov.vn/en/tin-tuc-xnc-viet-nam,10.7756362,106.69112179999999,Cục Quản lý Xuất nhập cảnh tại TPHCM
Passport (Phòng cảnh sát môi trường),"196 Nguyễn Thị Minh Khai, Phường 6, Quận 3, Thành phố Hồ Chí Minh, Việt Nam",Văn phòng chính phủ,Không có,downloaded_images\2542605d8dafc60f3cfcae5aa21c630b.jpg,https://lh3.googleusercontent.com/gps-cs-s/AG0ilSw9fOHLo1g5h7QXwVGgMCUdjZ_Pk5rdzYfveVnbHQZBx4tXs2NIoleJ88GSjGyXVjsXPXApAWil8aLC8QIfTeQ0sukT353ctXMJaNVLk-J_v-tD_fKyNVAVu1aBh40XdkOj3IjB=w80-h106-k-no,Không có,Không có,10.7757677,106.690917,Phòng Quản lý Xuất nhập cảnh Công an TPHCM
Công an Thành phố Hồ Chí Minh,"268 Trần Hưng Đạo, Phường Cầu Ông Lãnh, Quận 1, Thành phố Hồ Chí Minh 700000, Việt Nam",Đồn cảnh sát,+84 28 3920 1605,downloaded_images\2e6a447506c7636d7ba6c74081515825.jpg,https://lh3.googleusercontent.com/gps-cs-s/AG0ilSzTDduUGgKItZJ9ItHhSt3zF39RblN0rdI8-1xbkdU1yMpvjG0vD6DDBboGgZ6qhlBQFqRk9ystb1Vvbnodlae_-7c6wI9VvDUw63hu8jM7drra4qHzZ-wSvBnOcRgQKcmDlt0i=w80-h106-k-no,Không có,http://congan.hochiminhcity.gov.vn/,10.7588409,106.6869258,Phòng Quản lý Xuất nhập cảnh Công an TPHCM
Phòng Cảnh sát Giao thông PC08,,Sở cảnh sát ở Thành phố Hồ Chí Minh,Không có,Không có,,Không có,http://csgt-congan.hochiminhcity.gov.vn/wps/portal/Home/trang-chu,,,Phòng Cảnh sát giao thông đường bộ - đường sắt TPHCM
Sở Tư Pháp TP.HCM,"143 Pasteur, Phường 6, Quận 3, Thành phố Hồ Chí Minh, Việt Nam",Bộ phận tư pháp,+84 28 3829 7052,downloaded_images\0c77b617e7275083e971788f9540ef5b.jpg,https://lh3.googleusercontent.com/p/AF1QipPWcAlzj1bxAcb6F2Ua4o8RsiabFYVkbGbVCmKz=w219-h92-k-no,Không có,https://sotuphap.hochiminhcity.gov.vn/,10.7838014,106.6920622,Sở Tư pháp TPHCM
Phòng Tư Pháp Quận 6,"107 Đ. Cao Văn Lầu, Phường 1, Quận 6, Thành phố Hồ Chí Minh 70000, Việt Nam",Văn phòng chính phủ,Không có,downloaded_images\1b3105b4cc01626168c94077df9ae77b.jpg,https://streetviewpixels-pa.googleapis.com/v1/thumbnail?panoid=OOr9_aBz_3McijxtowCQyQ&cb_client=search.gws-prod.gps&w=80&h=92&yaw=256.5014&pitch=0&thumbfov=100,Không có,Không có,10.74625,106.649591,Sở Tư pháp TPHCM
Cục công tác phía Nam - Sở Tư pháp,"30 Trần Cao Vân, Phường 6, Quận 3, Thành phố Hồ Chí Minh, Việt Nam",Bộ phận tư pháp,Không có,downloaded_images\7d5b104e51cb905d94246e85f8fd1e19.jpg,https://lh3.googleusercontent.com/gps-cs-s/AG0ilSwGXsVX8I1B4JYFCWWruTToxLIt8dmSkWobDpf15vV_t8Oev7XUB1tufG045WANP90YalBAX568FMJ-nZVB7CBG8EjimdkYR7JW3_i8J0SlMUfzeBA5t3gtvamwaAdS2LhXVvfz=w157-h92-k-no,Không có,Không có,10.7826724,106.6964538,Sở Tư pháp TPHCM
Phòng Tư Pháp Quận Tân Phú,"70A Thoại Ngọc Hầu, Hòa Thạnh, Tân Phú, Thành phố Hồ Chí Minh, Việt Nam",Bộ phận tư pháp,Không có,downloaded_images\0b0f25a9913eaaba1fe1b4c9481ed2e9.jpg,https://streetviewpixels-pa.googleapis.com/v1/thumbnail?panoid=CvqQWkX3mil0jTXwQ7svYA&cb_client=search.gws-prod.gps&w=80&h=92&yaw=330.91016&pitch=0&thumbfov=100,Không có,Không có,10.7822347,106.6364663,Sở Tư pháp TPHCM
Phòng Tư Pháp Quận 5,"203 An Dương Vương, Phường 7, Quận 5, Thành phố Hồ Chí Minh 70000, Việt Nam",Văn phòng chính phủ,+84 28 3855 1203,downloaded_images\7888e310a574be5b43247f439a8b3ac3.jpg,https://streetviewpixels-pa.googleapis.com/v1/thumbnail?panoid=7_PWu0VFearhZU1jIV2Dmg&cb_client=search.gws-prod.gps&w=80&h=92&yaw=178.94894&pitch=0&thumbfov=100,Không có,Không có,10.756316499999999,106.6686285,Sở Tư pháp TPHCM
Phòng Hộ Tịch - Quốc Tịch,"Sở Tư Pháp, 141-143, Pasteur, Phường 6, Quận 3, Thành Phố Hồ Chí Minh, 214 Nam Kỳ Khởi Nghĩa, Phường 6, Quận 3, Thành phố Hồ Chí Minh, Việt Nam",Sở tư pháp,+84 28 3825 1402,downloaded_images\35717526948dfd106f1856ceb59529d1.jpg,https://lh3.googleusercontent.com/gps-cs-s/AG0ilSwnaiNjN4g3w-c2rSKHU4hmItKl9Jgzn9tfXqlhZYDt60SzkgDuw9zvHTZ0kUt_UmnitExF4h7Jp5A2ns3d77vptx7GXWdUBHtL92Fz6qBLSk1L_PO5T0dMMp4bftGXJLHGacE=w80-h177-k-no,Không có,Không có,10.7835839,106.691627,Sở Tư pháp TPHCM
Phòng Tư Pháp Quận Bình Tân,"Ủy Ban Nhân Dân, 521 Đ. Kinh Dương Vương, An Lạc, Bình Tân, Thành phố Hồ Chí Minh 70000, Việt Nam",Phòng tư pháp quận,+84 28 3875 2406,downloaded_images\efc7a7b73e8187cc811054afd100b3e1.jpg,https://streetviewpixels-pa.googleapis.com/v1/thumbnail?panoid=wBOVzd9fd8h6dst8IBY4qg&cb_client=search.gws-prod.gps&w=80&h=92&yaw=181.5033&pitch=0&thumbfov=100,Không có,Không có,10.7370556,106.6150272,Sở Tư pháp TPHCM
Trung tâm Thông tin và tư vấn công chứng,"25/5 Hoàng Việt, Phường 4, Tân Bình, Thành phố Hồ Chí Minh, Việt Nam",Sở tư pháp,+84 28 3811 5818,downloaded_images\e3d7df1049229ff4cca0a4e70d55532b.jpg,https://streetviewpixels-pa.googleapis.com/v1/thumbnail?panoid=VHUhgzgYLSudKQZGXrikVA&cb_client=search.gws-prod.gps&w=80&h=92&yaw=89.2793&pitch=0&thumbfov=100,Không có,Không có,10.7950313,106.65977819999999,Sở Tư pháp TPHCM
Phòng Tư Pháp,"175B Đ. Nguyễn Văn Trỗi, Phường 11, Phú Nhuận, Thành phố Hồ Chí Minh, Việt Nam",Văn phòng chính phủ,Không có,downloaded_images\c61a9da7fca35797489fb11807893f27.jpg,https://streetviewpixels-pa.googleapis.com/v1/thumbnail?panoid=prqhJXBhD1DtPcvIBp_LNw&cb_client=search.gws-prod.gps&w=80&h=92&yaw=299.20306&pitch=0&thumbfov=100,Không có,Không có,10.7941342,106.67589579999999,Sở Tư pháp TPHCM
Văn phòng Bộ Tư pháp tại TP. Hồ Chí Minh,"200c Võ Văn Tần, Phường 5, Quận 3, Thành phố Hồ Chí Minh 70052, Việt Nam",Văn phòng chính phủ khu vực,+84 28 3818 1995,downloaded_images\bf09251c64301fe6b6ac1c1cfde7f1ca.jpg,https://lh3.googleusercontent.com/gps-cs-s/AG0ilSzbeDw8d1Pa8YtKLASW7zPRIZVYAlKg99x-Zoly3YZa18Bn8AkAhRpxVnk56Yw80acynMNJlODknbt9Ns7oCSVa58O_sMhEjEsHFZV7fQthkr11iktSw_CCu4sgNiptRanhg5RW=w138-h92-k-no,Không có,Không có,10.773678799999999,106.6867482,Sở Tư pháp TPHCM
Trung tâm dịch vụ bán đấu giá tài sản,"19/5 Hoàng Việt, Phường 4, Tân Bình, Thành phố Hồ Chí Minh, Việt Nam",Sở tư pháp,+84 28 3811 9849,downloaded_images\1e00a9ac60aec7084225764ff13869d3.jpg,https://lh3.googleusercontent.com/gps-cs-s/AG0ilSzb9bdcKXdZI3TZl7p1BeNCzGHf5c9Hg-qCTRzl9Eet_vvF8IIkAY51xXK5RgKFMStW-jIVDMARBJiDRVZb2VIU-VH_yX9aPHVVsOJ4vXCbqXKJu1K5Ih3ONZUweroQquQ2cOEVJMoIe3xL=w80-h106-k-no,Không có,https://sotuphap.hochiminhcity.gov.vn/gt-bdgts,10.7964883,106.6602238,Sở Tư pháp TPHCM
Phòng Tuyên Truyền,"Sở Tư Pháp, 141-143, Pasteur, Phường 6, Quận 3, Thành Phố Hồ Chí Minh, Việt Nam",Văn phòng chính quyền địa phương,Không có,downloaded_images\2409b164d6667cba079e424adf73f796.jpg,https://streetviewpixels-pa.googleapis.com/v1/thumbnail?panoid=RYmhAon7Ql5GJSrY9HdOPA&cb_client=search.gws-prod.gps&w=80&h=92&yaw=284.79593&pitch=0&thumbfov=100,Không có,Không có,10.7843219,106.6915082,Sở Tư pháp TPHCM
Đội Quản lý Thi Hành Án Dân Sự Quận Tân Phú,"320/21 Đ. Độc Lập, Tân Quý, Tân Phú, Thành phố Hồ Chí Minh, Việt Nam",Sở tư pháp,+84 28 3847 4169,downloaded_images\bfb47e9b6e375478a447e8427161cd66.jpg,https://lh3.googleusercontent.com/gps-cs-s/AG0ilSyuUdbKZbTtZ47scUdsLvW0T5ALSuwdNMcfK3Hx_57MRjvSPR3zVCJsHD0jVn9-3SSMcX2eMNeX2w5CNPl61e8KQIDi56U6qKpdqjMGhjPMDoVTGt0xgz-mFCV_uh3vmgnaR-B9qyCQEFRE=w80-h106-k-no,Không có,Không có,10.793925,106.62639589999999,Sở Tư pháp TPHCM
Luật Sư Thế,"QGQX+89V, Đ. Vĩnh Lộc, Vĩnh Lộc B, Bình Chánh, Thành phố Hồ Chí Minh, Việt Nam",Sở tư pháp,+84 938 190 258,Không có,,Không có,http://www.hcmcbar.org/,10.7883675,106.54841119999999,Sở Tư pháp TPHCM
Tổng Lãnh sự quán Đức tại Tp. Hồ Chí Minh,"33 Lê Duẩn, Bến Nghé, Quận 1, Thành phố Hồ Chí Minh, Việt Nam",Tòa lãnh sự nước ngoài,+84 28 3828 8100,downloaded_images\f251a9625fcc7db1e14b8a2fc60f7004.jpg,https://lh3.googleusercontent.com/gps-cs-s/AG0ilSy241y5futSUEB-sksq6pBguM8pqhSjWImC-Yc-hqB2oCa31jY9BqXnPTRnQObO9gOYByip5uVr_LDcuh-SBbmuBf0nPfc0f1Iuxi84Pon88IH7QOFx99--jTsYHJfMP6_-z3o=w122-h92-k-no,Không có,/url?q=http://vietnam.diplo.de/&opi=79508299&sa=U&ved=0ahUKEwiL1oP2sKiRAxUsIEQIHdtrM3sQ61gIHigR&usg=AOvVaw3sP9fzqdIzzpdKyfC8by0n,10.782295999999999,106.7007338,Danh sách Lãnh sự quán tại TPHCM
Tổng Lãnh sự quán Hoa Kỳ,"4 Lê Duẩn, Bến Nghé, Quận 1, Thành phố Hồ Chí Minh, Việt Nam",Tòa lãnh sự nước ngoài,+84 28 3520 4200,downloaded_images\aaa643fa75255ee763209dba62c44892.jpg,https://lh3.googleusercontent.com/gps-cs-s/AG0ilSxGDE2vlnyqXXBOp3xvMS5PeZqtpnwUhgZOI52u2hJXl70vcSKtdeheThZJ4Zn690uBgRF_hqpkUn1OlYIp895tkbETI3Z7IfTxXi0XES9QzwEhYOZgRZHqxSp6QfOb8ILC3-6z=w147-h92-k-no,Không có,Không có,10.7834782,106.7006011,Danh sách Lãnh sự quán tại TPHCM
Tổng Lãnh Sự Quán Pháp,"27 Nguyễn Thị Minh Khai, Bến Nghé, Quận 1, Thành phố Hồ Chí Minh, Việt Nam",Tòa lãnh sự nước ngoài,+84 28 3520 6800,downloaded_images\8cbe6a84a4effebf60f9564e9f2debf5.jpg,https://lh3.googleusercontent.com/gps-cs-s/AG0ilSz8O3pn7MipvPFMAQskz8SsN_tprgMje6RXdjc0eGEKecKPWyJHqmeTXU-sutPS5it_PqPXOc_y-RM2kmBsdPnklnPxut9_ZEBRTHUP-YDmqbZWeO1hY9B8YzWfvWIrMrr8yb4w=w122-h92-k-no,Không có,/url?q=https://ho-chi-minh-ville.consulfrance.org/&opi=79508299&sa=U&ved=0ahUKEwiL1oP2sKiRAxUsIEQIHdtrM3sQ61gIXSgR&usg=AOvVaw3a8EeXkg3_fgY045tO_-_P,10.7832875,106.6986484,Danh sách Lãnh sự quán tại TPHCM
Tổng Lãnh Sự Quán Vương Quốc Hà Lan,"29 Lê Duẩn, Bến Nghé, Quận 1, Thành phố Hồ Chí Minh, Việt Nam",Tòa lãnh sự nước ngoài,+84 28 3823 5932,downloaded_images\654db78ab87f36acca581831f7035b2f.jpg,https://lh3.googleusercontent.com/gps-cs-s/AG0ilSz5elx1wK8quUw57B30diFY0CCdIzCgDRUhM3I1iMCUjCKa8qoPavGrIFVtP1XSjqXAkX3v5juk8ZG0vi6TtMirmCjVK-DBxaTV8AFmK6vpkwbAwpEMoUnJVdDgyOrBS4W9lnPQ=w154-h92-k-no,Không có,Không có,10.7826872,106.7011895,Danh sách Lãnh sự quán tại TPHCM
Lãnh sự quán Lào,"93 Pasteur, Bến Nghé, Quận 1, Thành phố Hồ Chí Minh, Việt Nam",Tòa lãnh sự nước ngoài,+84 28 3829 7667,downloaded_images\4d43392b84e4d137f168450927fcd95a.jpg,https://lh3.googleusercontent.com/gps-cs-s/AG0ilSw25mJWhOqWziD-XkHDOTxmPue4cMd9RUQWB0DacX-556JP5QhXup-t3BDLp4MhwwQEKYko4EOYS2DQeIbcAzzhmH7eyalWyp5D-TOjh4KzTr4ahaeFG7NxkR7r4PGs81me1Vlr=w122-h92-k-no,Không có,/url?q=http://www.chinhphu.vn/portal/page/portal/English/foreignembassies/detail%3FdiplomacyNationId%3D424%26diplomacyZoneId%3D105&opi=79508299&sa=U&ved=0ahUKEwiL1oP2sKiRAxUsIEQIHdtrM3sQ61gInAEoEQ&usg=AOvVaw3RegLjseE9EySiQgfEp9vN,10.7772391,106.6991053,Danh sách Lãnh sự quán tại TPHCM
Tổng Lãnh Sự Quán Mỹ Tại Thành Phố Hồ Chí Minh,"4 Lê Duẩn, Bến Nghé, Quận 1, Thành phố Hồ Chí Minh, Việt Nam",Tòa lãnh sự nước ngoài,Không có,downloaded_images\df92f1c5e9d7ee90e10bb06cdfa1fc70.jpg,https://streetviewpixels-pa.googleapis.com/v1/thumbnail?panoid=-iBcicjTRuD0TMbV0HL1Eg&cb_client=search.gws-prod.gps&w=80&h=92&yaw=308.34543&pitch=0&thumbfov=100,Không có,Không có,10.787084,106.7042926,Danh sách Lãnh sự quán tại TPHCM
Tổng lãnh sự quán Trung Quốc,"175 Hai Bà Trưng, Phường 6, Quận 3, Thành phố Hồ Chí Minh, Việt Nam",Tòa lãnh sự nước ngoài,+84 28 3829 2459,downloaded_images\787994fb881e3b30dbd872fc04b5c894.jpg,https://lh3.googleusercontent.com/gps-cs-s/AG0ilSw_zcIMP6EJDm15flAwBhTUf8fFUj1l7ma7UZVKxqwMebxzrufHY_aRwtlHJjHVK_hJSixPbzvmnslrFtwAA5Xun7HYqmh79CnneMT940m6OQmiCsCSUHKFv19iLB1Ghb8DvsYy=w163-h92-k-no,Không có,/url?q=https://hochiminhcity.china-consulate.gov.cn/&opi=79508299&sa=U&ved=0ahUKEwiL1oP2sKiRAxUsIEQIHdtrM3sQ61gI1wEoEQ&usg=AOvVaw2mfqwKSPSDuMhbPY4-bAES,10.7851161,106.6951675,Danh sách Lãnh sự quán tại TPHCM
Tổng Lãnh Sự Quán Úc,"Tòa nhà Vincom, 47 Lý Tự Trọng, Bến Nghé, Quận 1, Thành phố Hồ Chí Minh, Việt Nam",Tòa lãnh sự nước ngoài,+84 28 3521 8100,downloaded_images\c67d3cdfdbbd03633917f77b4fe04e17.jpg,https://lh3.googleusercontent.com/gps-cs-s/AG0ilSxwbh506yjT7xiv-sdod7HXjzasLYw-XGVw14fO3FbEsM8fzMr_1cAscqRyIwkZdpfsj5Jq41vUOq8CD6qsmuDUzuUJRSLrdT_r2wZchdeMKgm4JfFBit3uAsACdf0DXKvHQYzt=w80-h120-k-no,Không có,/url?q=http://hcmc.vietnam.embassy.gov.au/&opi=79508299&sa=U&ved=0ahUKEwiL1oP2sKiRAxUsIEQIHdtrM3sQ61gI9wEoEQ&usg=AOvVaw3ZYVXbZTIfEKFDfVWhi6ld,10.7780495,106.7017714,Danh sách Lãnh sự quán tại TPHCM
Tổng Lãnh sự quán Liên bang Nga tại TP. Hồ Chí Minh,"40 Bà Huyện Thanh Quan, Phường 6, Quận 3, Thành phố Hồ Chí Minh 70215, Việt Nam",Tòa lãnh sự nước ngoài,+84 28 3930 3936,downloaded_images\0b78ff75012db79cdded9742dc9605c7.jpg,https://lh3.googleusercontent.com/gps-cs-s/AG0ilSzUx0hjQO3wELAhb00mO6d3U6EDnWZetBk4RykMs5DAZglXCcQsoZkEXlD0ajn47tFXfu6KjQ68UdM3fJxpaWrXDnUMyWZuHoyWZYvwtUEMXVLvX5NLkLWIjw_PWoIQIxFKGz6IvA=w122-h92-k-no,Không có,/url?q=https://www.facebook.com/RusConsulGenHCMC&opi=79508299&sa=U&ved=0ahUKEwiL1oP2sKiRAxUsIEQIHdtrM3sQ61gIlwIoEQ&usg=AOvVaw2r9rTGODlIlWHQtCq7qC5s,10.7775505,106.6878981,Danh sách Lãnh sự quán tại TPHCM
Lãnh sự quán Bồ Đào Nha tại Tp. Hồ Chí Minh,"151 Nam Kỳ Khởi Nghĩa, Phường 6, Quận 3, Thành phố Hồ Chí Minh, Việt Nam",Tòa lãnh sự nước ngoài,+84 28 3930 9608,downloaded_images\20b4eca7bc85fb37646e94d6b111e997.jpg,https://lh3.googleusercontent.com/p/AF1QipOvlv3W8P0M89NyRkh6k8tPxChic6RyvVroQb-d=w122-h92-k-no,Không có,/url?q=http://www.portviet.org/&opi=79508299&sa=U&ved=0ahUKEwiL1oP2sKiRAxUsIEQIHdtrM3sQ61gItwIoEQ&usg=AOvVaw3PlgY7i3NgWK11DahP8Bdx,10.7818089,106.6922645,Danh sách Lãnh sự quán tại TPHCM
Lãnh sự Quán Danh dự Áo,"118/40 Nguyễn Văn Hưởng, Thảo Điền, Thủ Đức, Thành phố Hồ Chí Minh, Việt Nam",,+84 28 3519 3128,downloaded_images\f2f3604eb7e3b1f18f6bc353150084c6.jpg,https://lh3.googleusercontent.com/gps-cs-s/AG0ilSxtYD89eUarZBdV5IMj4nme-Ay7HZhOI5yH6oO1gErjjM9jMZnwtR5Wc7ocEna1xLPQrxd2sICl3kKxIDAC78DTdnsSInWDhJQGZG3ogumubq38LEeHDDKZwYSaTrqaGXQyorfx=w80-h142-k-no,Không có,/url?q=https://www.bmeia.gv.at/vi/oeb-hanoi/bilaterale-beziehungen/oesterreichische-stellen/&opi=79508299&sa=U&ved=0ahUKEwiL1oP2sKiRAxUsIEQIHdtrM3sQ61gI1gIoEQ&usg=AOvVaw22Eas-Mch9XloInpvsBWlu,10.808749299999999,106.7269223,Danh sách Lãnh sự quán tại TPHCM
Tổng lãnh sự quán Indonesia tại TP Hồ Chí Minh,"18 Phùng Khắc Khoan, Đa Kao, Quận 1, Thành phố Hồ Chí Minh, Việt Nam",Văn phòng chính phủ,+84 28 3825 1888,downloaded_images\1b2cd20314f48ec11b972f3ac7633982.jpg,https://lh3.googleusercontent.com/gps-cs-s/AG0ilSzBaSo6IpkU9PZRlTFmjeJbv5Tu53aieJD5-IsDCKmGZjEhlfuZy7BprSkVmtLAK-HasxtiH96C5BhnyQrdXwAObqDSSuMG8gHe8vqGb3QtOQP_5YUTfejzseQWzMDb0tG7oyynmA=w163-h92-k-no,Không có,/url?q=https://kemlu.go.id/hochiminhcity&opi=79508299&sa=U&ved=0ahUKEwiL1oP2sKiRAxUsIEQIHdtrM3sQ61gI9QIoEQ&usg=AOvVaw3LNBgLq1TiuILMxIF7tH14,10.7852743,106.6973197,Danh sách Lãnh sự quán tại TPHCM
Tổng lãnh sự quán Hàn Quốc,"107 Nguyễn Du, Phường Bến Thành, Quận 1, Thành phố Hồ Chí Minh, Việt Nam",Tòa lãnh sự nước ngoài,+84 28 3822 5757,downloaded_images\fe9c8564edde52840b82b6e147af1e72.jpg,https://lh3.googleusercontent.com/gps-cs-s/AG0ilSyMhhjlv3Naxmmss91F6WdyZgeFIsmULKiaTAib8RWGnnNbW75iiix2DuXKy3zLuSXlRKNVZ07StDm8ooW5T76QbT19T5jaqgecbJV-IhhiNEHeTE4SFRmsoTG_DbR8cXq3PO8Sqg=w122-h92-k-no,Không có,Không có,10.7743367,106.6957231,Danh sách Lãnh sự quán tại TPHCM
Tổng Lãnh Sự Quán Thái Lan,"77 Trần Quốc Thảo, Phường Võ Thị Sáu, Quận 3, Thành phố Hồ Chí Minh 700000, Việt Nam",Tòa lãnh sự nước ngoài,+84 28 3932 7638,downloaded_images\2c1d4c15f0d5e75e41d672a3b54a1cc8.jpg,https://lh3.googleusercontent.com/gps-cs-s/AG0ilSwgFzEjiCnoL1RtFYt8tuepNlkYm1SFe66KijUziz-Ku2fKNArvBHJseXHWHnvOqbn2071f5DTnXAKCW823HtSc9FFrkp7fpg5oN8KnwCVxcKT6pvfKoiL5dQWGkz7uTo9OSTHj7g=w122-h92-k-no,Không có,/url?q=http://www.thaiembassy.org/hochiminh&opi=79508299&sa=U&ved=0ahUKEwiL1oP2sKiRAxUsIEQIHdtrM3sQ61gItAMoEQ&usg=AOvVaw0L5DaoZlA9PqjD7z27I2OW,10.7815654,106.68758989999999,Danh sách Lãnh sự quán tại TPHCM
Tổng Lãnh Sự Quán Malaysia,"109 Nguyễn Văn Hưởng, Thảo Điền, Thủ Đức, Thành phố Hồ Chí Minh 71107, Việt Nam",Tòa lãnh sự nước ngoài,+84 28 3829 9023,downloaded_images\deffdd3b6e279b2e4b1bac16a456acc2.jpg,https://lh3.googleusercontent.com/gps-cs-s/AG0ilSxGsslsMvfmMJy683C9R8YWvVoapELzYZAI4TQI4FWNx6vNMQq7rZxwNSg70vQ9JC26mectqwl8suBBtYOtwlRcida7ITfHkL4lTIbf0sms1rJM-0S1xmxoLTM91GBua7FASUSt=w122-h92-k-no,Không có,/url?q=https://www.kln.gov.my/web/vnm_ho-chi-minh-city%3Ffbclid%3DIwAR3ToKQLvkDdev9b_BrDLCEzJCWnp8YGyX8EUxJa0vMjf2JPJht0tY5EN9g&opi=79508299&sa=U&ved=0ahUKEwiL1oP2sKiRAxUsIEQIHdtrM3sQ61gI1AMoEQ&usg=AOvVaw1ARzzW62aslXKI_mMtrZ3w,10.8072085,106.7253595,Danh sách Lãnh sự quán tại TPHCM
Tổng Lãnh sự quán Nhật Bản tại TP.HCM,"261 Điện Biên Phủ, Phường Võ Thị Sáu, Quận 3, Thành phố Hồ Chí Minh, Việt Nam",Tòa lãnh sự nước ngoài,+84 28 3933 3510,downloaded_images\b577462c9c89e0a79c1c2091cdb1e255.jpg,https://lh3.googleusercontent.com/gps-cs-s/AG0ilSw7oecMGCE-n7XWc6uGcQabn7bPeKfAHZLHSg64QllxuJNkM1Oy99abCs1kGHGXTy3l-Mu5SovE9cY77Cn7zkqwsORBMK_0WRPAtToiXC7gumzf_D2UIQEXkUn-JdIavD_pZ0A9=w122-h92-k-no,Không có,/url?q=https://www.hcmcgj.vn.emb-japan.go.jp/itprtop_ja/index.html&opi=79508299&sa=U&ved=0ahUKEwiL1oP2sKiRAxUsIEQIHdtrM3sQ61gI9AMoEQ&usg=AOvVaw06ORojJQXNnCO1jNIQWxd3,10.78121,106.68893299999999,Danh sách Lãnh sự quán tại TPHCM
Lãnh sự Danh dự nước Cộng hòa Nam Phi,"19 Phùng Khắc Khoan, Đa Kao, Quận 1, Thành phố Hồ Chí Minh, Việt Nam",Tòa lãnh sự nước ngoài,+84 28 3823 8556,downloaded_images\9eda246c92b0654f08da65ea5a002f12.jpg,https://lh3.googleusercontent.com/gps-cs-s/AG0ilSzGO8DGxRi3ieW7IlKfbHkrBvafxGMKfcUawDxC3r8r1XYUkK0WS8eDus5aT_lq-HdMJShH8qTNrj-RW7wKvCmcpIUshnzXmFOIRqvBnJxg6hii-L7gtykMOAkfOsQBuT7lfLo=w104-h92-k-no,Không có,Không có,10.7847628,106.6975793,Danh sách Lãnh sự quán tại TPHCM
Lãnh sự quán Rumani tại Thành phố Hồ Chí Minh,"214 Võ Thị Sáu, Phường Võ Thị Sáu, Quận 3, Thành phố Hồ Chí Minh, Việt Nam",Tòa lãnh sự nước ngoài,+84 28 3989 8989,downloaded_images\f9118cc243775bbaf5d708140187d81d.jpg,https://lh3.googleusercontent.com/gps-cs-s/AG0ilSxLEJ06H9zw79ZBYSpOMeSlNCO7lBQsT1k3UAdxaPBdW81ggnkNRWxP7R7EGP5WO4BjIY6FeByDwFw2YqXT9ad0LhG_BUu8SatXba3z4fyVhEYneS_LJFDM-VxSdYzNFjwggCqR=w163-h92-k-no,Không có,Không có,10.783123,106.686955,Danh sách Lãnh sự quán tại TPHCM
Tổng Lãnh Sự Quán Hungary,"9-11 Tôn Đức Thắng, Bến Nghé, Quận 1, Thành phố Hồ Chí Minh 700000, Việt Nam",Tòa lãnh sự nước ngoài,+84 28 3622 1001,downloaded_images\d3bac6522e788074cf1fe3a7ed200d23.jpg,https://lh3.googleusercontent.com/gps-cs-s/AG0ilSwyDJcNc3CBQAPvMfPsW6_l-mZMjJO4S7y89iXosqO8zM1bpNhQURVsO2LMeSdZ_u5_SoAOWrL9YgrjTGuK5FmE-KDa6uIDmyMLBjlLmmsvbU2XP5A2iPnZB0P4YwJO758GZrd5BA=w122-h92-k-no,Không có,Không có,10.781797,106.706188,Danh sách Lãnh sự quán tại TPHCM
Tổng Lãnh Sự Quán Hungary,"22 Phùng Khắc Khoan, Đa Kao, Quận 1, Thành phố Hồ Chí Minh 700000, Việt Nam",Tòa lãnh sự nước ngoài,+84 28 3622 1001,downloaded_images\71a7575a949668621d22c30c7024ca92.jpg,https://lh3.googleusercontent.com/gps-cs-s/AG0ilSw3cwe0-bYMj2yWcvcqHhXJJRXHpQzc4ut7UUVoeE6cG8rfjJV1Vn9YpNOA-Sme3bCbDiuaOFWa3vwyMajJhYbBdN9isCvOP-aXSkUQMiPqvy0r6ZrjEA6ChV2M75wkFKlZKBpsNA=w80-h106-k-no,Không có,Không có,10.7855334,106.69715149999999,Danh sách Lãnh sự quán tại TPHCM
Bệnh viện Quốc tế City,"3 Đường Số 17A, Bình Trị Đông B, Bình Tân, Thành phố Hồ Chí Minh 700000, Việt Nam",Bệnh viện đa khoa,+84 1900 8146,downloaded_images\e4e87e94dd205f456696a6937fc9f7b2.jpg,https://lh3.googleusercontent.com/p/AF1QipPj6Ygs46jmUXWem1gg3-WTxsH3jKpyZjUIrYDj=w163-h92-k-no,Không có,https://cih.com.vn/,10.7410166,106.60912499999999,Bệnh viện quốc tế tại TPHCM
Bệnh Viện Quốc Tế DNA,"1015 Trần Hưng Đạo, Phường An Đông, Quận 5, Thành phố Hồ Chí Minh 700000, Việt Nam",Bệnh viện,+84 1900 2840,downloaded_images\fa5b63b32b3a1569fe4b03c395178358.jpg,https://lh3.googleusercontent.com/p/AF1QipP5uzPoPZZsB6ltFLhaRZAlHGKv4tQLrHzFbqrH=w80-h119-k-no,Không có,https://dnahospital.vn/,10.7535654,106.67552409999999,Bệnh viện quốc tế tại TPHCM
Bệnh Viện Đa Khoa Quốc Tế Nam Sài Gòn,"88 Đường Số 8, Khu dân cư Trung Sơn, Bình Chánh, Thành phố Hồ Chí Minh, Việt Nam",Bệnh viện đa khoa,+84 1800 6767,downloaded_images\2b54be11af24e419def759b943ae99bf.jpg,https://lh3.googleusercontent.com/p/AF1QipPbSxA0z7jd0FbR8OQoncsSopFNtW6_HXe5QpRG=w128-h92-k-no,Không có,https://benhviennamsaigon.com/,10.735866099999999,106.69086709999999,Bệnh viện quốc tế tại TPHCM
Bệnh Viện Quốc Tế Mỹ (AIH),"199 Nguyễn Hoàng, Phường Bình Trưng Tây, Thủ Đức, Thành phố Hồ Chí Minh, Việt Nam",Bệnh viện,+84 28 3910 9999,downloaded_images\d0c90bde9d2fb199aaacff2d0b212578.jpg,https://lh3.googleusercontent.com/gps-cs-s/AG0ilSzwhUHP6pb4wS88ghZC5IonwBBWpS7NK0fu90PVOXo-rf6Ll4oSj3W1NgihjYlVMp8OhQ3jrb0ucXTL_Uz9_vA8iwY1c0fh13wUeblHvT9Zx1dR8Lz57QM6BohUN6xOn3fX_iI=w122-h92-k-no,Không có,http://aih.com.vn/,10.793733699999999,106.7464567,Bệnh viện quốc tế tại TPHCM
Bệnh viện Đa khoa Quốc tế Vinmec Central Park,"208 Nguyễn Hữu Cảnh, Vinhomes Tân Cảng, Bình Thạnh, Thành phố Hồ Chí Minh 700000, Việt Nam",Bệnh viện đa khoa,+84 28 3622 1166,downloaded_images\8611883f562c2395b90e12e9ecf769b8.jpg,https://lh3.googleusercontent.com/p/AF1QipPpsWyD2gkMktwLEty1zJjTuTkWHkpToRU0itKo=w138-h92-k-no,Không có,https://www.vinmec.com/vie/co-so-y-te/benh-vien-da-khoa-quoc-te-vinmec-central-park-10890-vi-hoi-suc-cap-cuu,10.7939771,106.72034819999999,Bệnh viện quốc tế tại TPHCM
Bệnh viện Chuyên Khoa Ngoại Thần Kinh Quốc Tế,"65A Đ. Lũy Bán Bích, Tân Thới Hoà, Tân Phú, Thành phố Hồ Chí Minh, Việt Nam",Bệnh viện chuyên khoa,+84 28 3961 6977,downloaded_images\de8475f76746a0d50afb5d7c8303006d.jpg,https://lh3.googleusercontent.com/gps-cs-s/AG0ilSx8Xdb3QKORfL5AQ2digcsvV4E28oLVGEIHHUq17pnCLMpdKkWCqBVYBFyoiyg0wGR2De74hAvG1Z1gRvlAtKcBxg4nj9g1X8wwBjkKXIugsJvhlzIrt8eLQA_ir8qsWy-j27t3zw=w122-h92-k-no,Không có,http://www.bvngoaithankinhqt.org.vn/,10.7612331,106.63213739999999,Bệnh viện quốc tế tại TPHCM
Bệnh viện Quốc tế Thảo Điền,"95/3 Thảo Điền, Thủ Đức, Thành phố Hồ Chí Minh 700000, Việt Nam",Bệnh viện,+84 901 459 969,downloaded_images\54235d08a3ddf054b171f09ba3a0ef1e.jpg,https://lh3.googleusercontent.com/p/AF1QipOs-cwz_S0qUhjTQdYmAKmDANgnRkggDVy_qa5R=w163-h92-k-no,Không có,http://benhvienthaodien.com.vn/,10.8075735,106.7337172,Bệnh viện quốc tế tại TPHCM
Phòng khám đa khoa Quốc tế TIMEC,"4449 Nguyễn Cửu Phú, Tân Tạo A, Bình Tân, Thành phố Hồ Chí Minh, Việt Nam",Bệnh viện,+84 879 115 115,downloaded_images\576cd3b6dc8ec8d0a17fb05de32ecb65.jpg,https://lh3.googleusercontent.com/gps-cs-s/AG0ilSxVJSMy551CbWnEnVzCv8TEDfQmNSSEOi4JXxqQsDLEauh2LUVETQJTo-IDnjrtDJjfcDer5TjlRGb9GIwpVKLCsdO4g_4I_nbwZ84QtugnzZsgX_uEJQJk8dm49AL8JYCwqM6b=w113-h92-k-no,Không có,http://timec.vn/,10.7547242,106.5837627,Bệnh viện quốc tế tại TPHCM
Phòng Khám Đa Khoa Quốc Tế Sài Gòn (SIG) - Quận 7,"441 Đ. Lê Văn Lương, Tân Hưng, Quận 7, Thành phố Hồ Chí Minh 700000, Việt Nam",Trung tâm y tế,+84 28 3821 3456,downloaded_images\c66d1a18dc7eeb3180aa531e8d9208ba.jpg,https://lh3.googleusercontent.com/p/AF1QipMR_32jIP8k1LXdMuJBiaZ3ABnRiPn_5ZRNoe43=w110-h92-k-no,Không có,https://bvquoctesg.com/phong-kham-da-khoa-quan-7/,10.737843999999999,106.7033359,Bệnh viện quốc tế tại TPHCM
Công Ty TNHH Bệnh viện Quốc tế Queen,"118 Bành Văn Trân, Phường 7, Tân Bình, Thành phố Hồ Chí Minh 700000, Việt Nam",Bệnh viện đa khoa,+84 28 3865 2225,downloaded_images\8fccab531ad892a70fdd0188dada0b8b.jpg,https://lh3.googleusercontent.com/p/AF1QipN8LXDlIQiPD_4DCi2W5MTUk2waMFkjm7ugGatU=w138-h92-k-no,Không có,https://queenihc.com/,10.789605,106.656719,Bệnh viện quốc tế tại TPHCM
Sai Gon International Clinics,"Đ. Trịnh Văn Cấn, Phường Bến Thành, Quận 1, Thành phố Hồ Chí Minh, Việt Nam",Phòng khám,+84 28 3821 3456,downloaded_images\e5c96d1cf20ee127f43c2549534bdf04.jpg,https://lh3.googleusercontent.com/p/AF1QipP5otIJ0Lw37EM_vjplEFPtZwyInuNNX2kdo1G1=w163-h92-k-no,Không có,https://bvquoctesg.com/phong-kham-da-khoa-quan-1/,10.7672671,106.6966216,Bệnh viện quốc tế tại TPHCM
Bệnh viện Quốc tế Minh Anh,"36 Đường số 1B, Bình Trị Đông B, Bình Tân, Thành phố Hồ Chí Minh, Việt Nam",Bệnh viện tư nhân,Không có,downloaded_images\692572fd315ba8340932654db4870141.jpg,https://lh3.googleusercontent.com/gps-cs-s/AG0ilSxAp8KvrS6KAmqHmu1JszMCf60kiBGfTyoKRT0sMs2FRBxEczk2mcLn5q1T0EPvxDSnfVfiTu-NKaVM2cjDFBBZaQbxwvc1O6knpIVtXX1S9lNXKtPr9gVpkF_ZH3EAL2G4N36nhg=w138-h92-k-no,Không có,http://www.minhanhhospital.com.vn/,10.747508999999999,106.6145533,Bệnh viện quốc tế tại TPHCM
Phòng Khám Đa Khoa Quốc Tế An Phú (APH),"Lương Định Của, An Phú, Thủ Đức, Thành phố Hồ Chí Minh 71106, Việt Nam",Bệnh viện,+84 902 838 545,downloaded_images\93d88ab6c8f7015da2a666e57c27a876.jpg,https://lh3.googleusercontent.com/gps-cs-s/AG0ilSw3JRmn5rtMGhceotCtZQ7bWdxtwtB1sYZUv3tbxD3y1W0MsCOcvzyhvUw5kBNPqJo39NBkxVmKS4y-lbm8M3z7h2u35TrsZ8SoAL7RWncqy4cgdObpZrrQUulMrq2i942boQSrfw=w122-h92-k-no,Không có,http://pkanphu.com/,10.7913248,106.7474553,Bệnh viện quốc tế tại TPHCM
Bệnh viện Mắt Quốc tế Việt - Nga - TP. HCM,"Đ. 3 Tháng 2/1 Phường Vườn Lài, Phường 10, Quận 10, Thành phố Hồ Chí Minh 70000, Việt Nam",Bệnh viện chuyên khoa,+84 931 888 801,downloaded_images\becbef9b8461728fb2472c7201fe2b9a.jpg,https://lh3.googleusercontent.com/p/AF1QipMUvXYjNt_dPTv-q3rFQtLwdYVRY4Rb8iXxbqak=w152-h92-k-no,Không có,https://hcm.matvietnga.com/,10.7774793,106.6814524,Bệnh viện quốc tế tại TPHCM
Bệnh viện quốc tế CARMEL,"190 Trần Lựu, Khu đô thị An Phú An Khánh, Thủ Đức, Thành phố Hồ Chí Minh, Việt Nam",Bệnh viện chuyên khoa,Không có,downloaded_images\9d83e2924f0addf6317e6c867f6cff98.jpg,https://streetviewpixels-pa.googleapis.com/v1/thumbnail?panoid=098eXO9g5Cde4xcfxhcfVA&cb_client=search.gws-prod.gps&w=80&h=92&yaw=91.34441&pitch=0&thumbfov=100,Không có,Không có,10.7960719,106.74167539999999,Bệnh viện quốc tế tại TPHCM
Phòng khám Đa khoa Quốc tế Hạnh Phúc - Estella,"88 Song Hành, P, Thủ Đức, Thành phố Hồ Chí Minh 700000, Việt Nam",Phòng khám,+84 1900 6765,downloaded_images\a1abcfb1e0d72638b50e1c91db044d0e.jpg,https://lh3.googleusercontent.com/p/AF1QipMYarwN3nt0w9EPMqqRl2tp1nKnscMCWxdtXN0w=w138-h92-k-no,Không có,https://clinic.hanhphuchospital.com/?utm_source=google+business&utm_medium=profile,10.8021093,106.74820899999999,Bệnh viện quốc tế tại TPHCM
Phòng khám Đa khoa Quốc tế Việt Healthcare,"16 & 18 Đ. Lý Thường Kiệt, Phường Diên Hồng, Thành phố Hồ Chí Minh, 10001, Việt Nam",Phòng khám,+84 795 787 879,downloaded_images\bb5d9293dd0d4df05823b1c04096ddeb.jpg,https://lh3.googleusercontent.com/p/AF1QipPWd8LP57KYI6YZLmguqAW9CVAmkEicuaJI4e9n=w80-h100-k-no,Không có,https://viethealthcareclinic.com/,10.7588121,106.66159189999999,Bệnh viện quốc tế tại TPHCM
Phòng khám Quốc tế Victoria Healthcare,"135A Đ. Nguyễn Văn Trỗi, Phường 11, Phú Nhuận, Thành phố Hồ Chí Minh 700000, Việt Nam",Phòng khám,+84 28 3910 4545,downloaded_images\d23131bedaea5e81a4f0f97e9078835e.jpg,https://lh3.googleusercontent.com/gps-cs-s/AG0ilSySZPSMikhrmBwqaN-aQW9VMyx22da5C5WtnkCrmYiKsunTPa-fAwa9_AQmjOuTWHeEtFqDhMoNIqDXKhLJzrhLe6T5pE93SPvaiUcSznpHpLQp5s92n_LONzJO4__YPB-J7W4=w122-h92-k-no,Không có,https://www.victoriavn.com/,10.7942381,106.6773309,Bệnh viện quốc tế tại TPHCM
Bệnh viện đa khoa quốc tế Sài Gòn,"9 Đ. Trịnh Văn Cấn, Phường Bến Thành, Quận 1, Thành phố Hồ Chí Minh, Việt Nam",Bệnh viện,Không có,Không có,,Không có,Không có,10.7677123,106.69680179999999,Bệnh viện quốc tế tại TPHCM
Bệnh viện Quốc tế Chấn thương chỉnh hình Sài Gòn (SAIGON-ITO),"305 Đ. Lê Văn Sỹ, Phường 1, Tân Bình, Thành phố Hồ Chí Minh, Việt Nam",Bệnh viện chuyên khoa,+84 28 3991 2030,downloaded_images\c46c1364ba84a23182946458bebca920.jpg,https://lh3.googleusercontent.com/gps-cs-s/AG0ilSwgGF0d6E_cA1MOfcwYk_juE8qx-9rT9ljZ0SessC4b_fRTgbMs5-Kzjj8FzrBnP-2MmAbINViV7rSEN8JEt320S6PxmawSp_-8nT4qCZQJAFClSlhApInZRcWrBsbjFFvjZQJQ=w122-h92-k-no,Không có,http://saigonitohospital.com/,10.7948684,106.6671137,Bệnh viện quốc tế tại TPHCM
Bệnh Viện Công An Thành Phố,"117 Phó Cơ Điều, Phường 7, Quận 11, Thành phố Hồ Chí Minh, Việt Nam",Bệnh viện,Không có,downloaded_images\9ebb6714aa4881f529f6dcda73ac88ba.jpg,https://streetviewpixels-pa.googleapis.com/v1/thumbnail?panoid=w2LSOYbjlKkO2CkkTSO7JQ&cb_client=search.gws-prod.gps&w=80&h=92&yaw=258.54053&pitch=0&thumbfov=100,Không có,Không có,10.758939699999999,106.6569117,Bệnh viện công tại TPHCM
Bệnh Viện Công An Tp. Hồ Chí Minh - Khoa Y Học Cổ Truyền,"134 Đ. Hải Thượng Lãn Ông, Phường 11, Quận 5, Thành phố Hồ Chí Minh, Việt Nam",Bệnh viện,+84 28 3854 9734,downloaded_images\064135cd640c0e4f9affcd17db0a67f2.jpg,https://lh3.googleusercontent.com/gps-cs-s/AG0ilSz9XpKOZkd5aGqojABT0osdbbsEqlcdeuvXUIsMxtBI8e0tpt3Sy3YZtwkDaoNKzRY3_s_F97KKqAsqsbRmaK2M6gHFTdBSGifAXGTt56A6UnFI4LosEE0HTTksI-zcw6Poe-fpPlV7fTCD=w80-h106-k-no,Không có,Không có,10.751006199999999,106.6605953,Bệnh viện công tại TPHCM
Phòng Khám Đa Khoa Thành Công,"36 ĐƯỜNG CN 4, Tây Thạnh, Tân Phú, Thành phố Hồ Chí Minh 700000, Việt Nam",Phòng khám,+84 28 3815 9435,downloaded_images\187c215855f3891ee103dfa790f4c31c.jpg,https://lh3.googleusercontent.com/gps-cs-s/AG0ilSzw2gpFz7J3KJh-yIKZZnZvlTzCuqpsPrhtFhC88kyDwhHXPXOEmxnXNtPMMJmbEObCxcYjl_yojiDpPwn8pCzQXz4HEsIe-CKB8cHXAxGDukf9jM5D1KRqaA9yT8lwXb7Ri64n8A=w122-h92-k-no,Không có,https://www.thanhcongclinic.com/,10.819176599999999,106.6258773,Bệnh viện công tại TPHCM
Bệnh viện Nhân dân Gia Định,"1 Nơ Trang Long, Phường 7, Bình Thạnh, Thành phố Hồ Chí Minh, Việt Nam",Bệnh viện,+84 28 3841 2692,downloaded_images\c78c1994fafcdae274a4fb35994fc1f5.jpg,https://lh3.googleusercontent.com/gps-cs-s/AG0ilSzjxIW_i7Jappl-mUu5y-bQ28Lelbt-4laYHJmyJrWQ5TVAmJellnOgNMhEqkYRmgvS_VzCzVD_0ukubh5Rpx3bG_qLZzI43IlOmzFVcy0MoqLD0YydaF0MVclIjA5jd-RDQ8fU=w122-h92-k-no,Không có,http://bvndgiadinh.org.vn/,10.803747099999999,106.69413879999999,Bệnh viện công tại TPHCM
Bệnh viện Bình Thạnh,"132 Đ. Lê Văn Duyệt, Phường 1, Bình Thạnh, Thành phố Hồ Chí Minh, Việt Nam",Bệnh viện đa khoa,+84 28 3510 8966,downloaded_images\4aad8ad0b701b110fdff0f2502ab5584.jpg,https://lh3.googleusercontent.com/gps-cs-s/AG0ilSy_HNME2lN0NvN-A4BduQJVjU6AiImkySZuMpfyE_20C26EXBJr9Ydmnjsm-umAtSIRGjdu7LvK0sBCKXI25AJaXNJ42OIf1rJX0XF-PLOPhPEGSu3rE6GazYC9wUNfsyjYkB5r=w163-h92-k-no,Không có,https://bvbinhthanh.org.vn/khoa,10.7980298,106.6966605,Bệnh viện công tại TPHCM
Bệnh viện 30-4,"9 Sư Vạn Hạnh, Phường 9, Quận 5, Thành phố Hồ Chí Minh 72712, Việt Nam",Bệnh viện chính phủ,Không có,downloaded_images\9df179a56a20a7afa6e8e05e9899d6de.jpg,https://lh3.googleusercontent.com/gps-cs-s/AG0ilSyBIlw6wb6n_oHGsRmYy0dteQPzELJVocLfd24yJuBXTqscNMiSqoeG1R_kdhhKLEnsj7rUYcO64DcqQbP1i0H9sC-aEq39ds53YoQbW13dpLSuP0H91r7ySNp1TciDZehBft0=w122-h92-k-no,Không có,http://benhvien304.com.vn/,10.7591033,106.6730315,Bệnh viện công tại TPHCM
Viện Y tế Công cộng TP. HCM,"159 Đ. Hưng Phú, Phường Hưng Phú, Quận 8, Thành phố Hồ Chí Minh 700000, Việt Nam",Trung tâm y tế công cộng,+84 28 3855 9503,downloaded_images\51465375f1ce9b905795043a2ecec77d.jpg,https://lh3.googleusercontent.com/gps-cs-s/AG0ilSzqc3Dnp0Z1Gsn67d8cyARx9TGuf1nMgAC1XKp397O5CY_Y9Wovim4NlxZmf8ZKcHacUjHSn9th-41ztdJJXkEfSgsv6O6zZ-u0fv4-Xl1zZs4j_c596UYoVMPtGQd9fHsaip6L=w163-h92-k-no,Không có,https://iphhcm.org/,10.749882699999999,106.67866959999999,Bệnh viện công tại TPHCM
Bệnh viện Nhi Đồng Thành Phố,"15 Đ. Võ Trần Chí, Tân Kiên, Bình Chánh, Thành phố Hồ Chí Minh, Việt Nam",Bệnh viện nhi,+84 28 2253 6688,downloaded_images\5e6ea78fb18b7cd0fb51970586d1825f.jpg,https://lh3.googleusercontent.com/p/AF1QipPQaU2h1pO4sUZ4fa-VdKS7Xp_Zu9P7j8J8Ij-3=w163-h92-k-no,Không có,http://bvndtp.org.vn/,10.7096251,106.5738758,Bệnh viện công tại TPHCM
Bệnh viện Đa khoa Sài Gòn,"125 Lê Lợi, Phường Bến Thành, Quận 1, Thành phố Hồ Chí Minh 700000, Việt Nam",Bệnh viện,+84 28 3829 1711,downloaded_images\cf6a256bc073e08e8b29480ecdacbd63.jpg,https://lh3.googleusercontent.com/gps-cs-s/AG0ilSzMYN_Se1Y1OTU0CSwEQmC477s13mwAKBNXxu2o1J9ltK97qXssXVIKeyUSklTn_eAeIQXzaTN3N_u9N_KJVLAAWzxYDwcaFm_ZXp3S1aSZIKEIwaFd63p_28zDYmsUeBjxat9C=w145-h92-k-no,Không có,http://benhviendakhoasaigon.vn/,10.7721693,106.6993921,Bệnh viện công tại TPHCM
Bệnh viện Trưng Vương,"266 Đ. Lý Thường Kiệt, Phường Diên Hồng, Quận 10, Thành phố Hồ Chí Minh 700000, Việt Nam",Bệnh viện đa khoa,+84 28 3865 6744,downloaded_images\cdef3304e78bd77ca21e4996cf1a1ca7.jpg,https://lh3.googleusercontent.com/gps-cs-s/AG0ilSx7fF5OoftTLjEM_VyFWdeA6f22tyvNW-lMtLuwXKGtVBPkN_ANI_Zk28LnXkTiy5ETbeJmxg-iwuUXwxVADecoCxNHAp8xMA-lGF26lvL0hbnvfWqg-SQ_Bo3j1MUfW3fJxtJN=w122-h92-k-no,Không có,http://bvtrungvuong.vn/,10.770505499999999,106.6594484,Bệnh viện công tại TPHCM
Phòng Công tác xã hội - Bệnh viện Chợ Rẫy,"201B Nguyễn Chí Thanh, Phường 12, Quận 5, Thành phố Hồ Chí Minh, Việt Nam",Bệnh viện,+84 28 3855 2486,downloaded_images\5957c156fd1bb7bc3ebcba0309e6132f.jpg,https://lh3.googleusercontent.com/gps-cs-s/AG0ilSwZLm--AqXKz3bBf43akHuwR_R0yCFqyWFqyIz0FBrRzfmdNUErTTrImaJ3uvHD50QG-07Mx30CJnNHJU1jYf9kw_nHntLSVD2ZD5GyGOJZiod1JDw3nUVVmOTqd-MPLJmVLqgH=w80-h106-k-no,Không có,https://www.facebook.com/phongcongtacxahoibenhvienchoray/,10.757167899999999,106.65907519999999,Bệnh viện công tại TPHCM
Bệnh viện Phạm Ngọc Thạch,"120 Đ. Hồng Bàng, Phường 12, Quận 5, Thành phố Hồ Chí Minh, Việt Nam",Bệnh viện,+84 28 3855 0207,downloaded_images\986870ec9fde4ba00403f2484af40308.jpg,https://lh3.googleusercontent.com/gps-cs-s/AG0ilSz5Lupi13sP04zohTnBO1LO2gat4qnT8biAYKWkmgUyMPrBNBkCJ3i4q9rh41CoOHNiR3KNh-dgscyZ7ZpflkKC3v8GLFnVEc4uQ9oh9gEa96_YTz-mgv6tbhQ3re2vHRiKVzE3_w=w122-h92-k-no,Không có,http://bvpnt.org.vn/,10.7570129,106.66597039999999,Bệnh viện công tại TPHCM
Bệnh viện Đa khoa Gia Định,"425 - 427 - 429, Nơ Trang Long, Phường Bình Lợi Trung, Bình Thạnh, Thành phố Hồ Chí Minh 700000, Việt Nam",Bệnh viện đa khoa,+84 28 3512 4688,downloaded_images\d4273ae03b187141b84c47f74e452aa9.jpg,https://lh3.googleusercontent.com/gps-cs-s/AG0ilSzy-OY4gBD1APKKFGjKKanG3QdiF1yX8itF8_lUhK2rUSDQ2zgCJXMP2rD-1i_y2gKs795D06kWV2GH5WebQh4MqBNEhUz78rzzBNKDw6X9UrGMp6Ysl4ORqglup4_bp9AvRTk=w80-h106-k-no,Không có,https://bvdkgiadinh.com/,10.820904599999999,106.7048075,Bệnh viện công tại TPHCM
Bệnh viện Quận 8,"82 Cao Lỗ, Phường 4, Quận 8, Thành phố Hồ Chí Minh, Việt Nam",Bệnh viện đa khoa,+84 28 3850 6130,downloaded_images\fefcdd34a4ebcfb000ca64088570b654.jpg,https://lh3.googleusercontent.com/gps-cs-s/AG0ilSz0iIiEPeu2JzdrCRMMS97uSVKd8WeU7kNuR-1snYqpGxDrDgOWl1AwsCe4Qs37LK62qq0XV-FFzCmkCul8Zl8OHPfMf0J402f2SSqUX6Sjdt5YS7_s542VDDDuLpkZnGR7KyVkKA=w122-h92-k-no,Không có,http://bvquan8.medinet.gov.vn/Defaultmobile.aspx#,10.7416667,106.67638889999999,Bệnh viện công tại TPHCM
Bệnh viện Quận 7,"101 Đ. Nguyễn Thị Thập, Phường Tân Mỹ, Quận 7, Thành phố Hồ Chí Minh 00700, Việt Nam",Bệnh viện đa khoa,+84 28 3873 3420,downloaded_images\79a1f89af31ff4d7b183022095b260b7.jpg,https://lh3.googleusercontent.com/p/AF1QipMw5Q6AYfU5uZXi5gyAE8vV3NqTLr2nMmtzy3hp=w144-h92-k-no,Không có,http://www.benhvienquan7.com.vn/,10.7373313,106.7241657,Bệnh viện công tại TPHCM
Bệnh viện Quận Phú Nhuận,"274 Nguyễn Trọng Tuyển, Phường 8, Phú Nhuận, Thành phố Hồ Chí Minh, Việt Nam",Bệnh viện,+84 28 3844 3910,downloaded_images\eb43dac195cdc0ea13a66bf8ead49c5e.jpg,https://lh3.googleusercontent.com/gps-cs-s/AG0ilSyl-jDwvBMNzoWUKgnQY7DyKgL8LVLiJchMWeonkMjrSqBLNrsBCj_Mw5NBmmMZd2cjMEeOivAVcAoC7hWoEzpWqglEfmoq7ZqoV6Fk1rCOzEkUl4HszO-lD6qxb1jay2hFV85Ce8N8-oFt=w163-h92-k-no,Không có,https://bvquanphunhuan.medinet.gov.vn/,10.798107,106.67182229999999,Bệnh viện công tại TPHCM
Bệnh viện Hùng Vương,"9 Đ. Lý Thường Kiệt, Phường 12, Quận 5, Thành phố Hồ Chí Minh, Việt Nam",Bệnh viện chuyên khoa,+84 28 3855 8532,downloaded_images\672034f577663e72cd48946956a7f2ff.jpg,https://lh3.googleusercontent.com/gps-cs-s/AG0ilSxHVCN0MWck73Tw_HIyjcymBsU3cwb3ymyROEGqsNV4WHlyTgxmF5RPyMjuFZe8SlzjYfGkMzlY_PY-34Ejt14ddRr3bDwcIgiC_yt7Voi6vGPjZYnIiX_pfyutXPoZp0DJ7quGOw=w163-h92-k-no,Không có,http://www.bvhungvuong.vn/,10.7565723,106.66182739999999,Bệnh viện công tại TPHCM
Bệnh viện Đa khoa Bình Tân,"QJ73+86P, 809 HL2, Bình Trị Đông A, Bình Tân, Thành phố Hồ Chí Minh 100000, Việt Nam",Bệnh viện đa khoa,+84 28 3754 2955,downloaded_images\e3193bb4a2c80ca9d7eb24de02f7b5a9.jpg,https://lh3.googleusercontent.com/gps-cs-s/AG0ilSw-RG7-IwHXUmcQc3P-QKfrz8RBf20DVCjYjDXymb2qO9yi2wcggEB97mTRXSF6ROe6Dt990uC3ekXaYDY34Nmrbkv1t18eAGRVI1BFnOVRb8l-7ZO6APx9IIKmryAm8PgFKqTk=w149-h92-k-no,Không có,http://www.bvbinhtan.vn/,10.7643601,106.6032103,Bệnh viện công tại TPHCM
Bệnh viện Bình Dân,"371 Điện Biên Phủ, Phường 4, Quận 3, Thành phố Hồ Chí Minh 700000, Việt Nam",Bệnh viện,+84 28 3839 4747,downloaded_images\8f732974b9f565d718b01fe4d072208a.jpg,https://lh3.googleusercontent.com/p/AF1QipNC_fsBYq1ZfMFnJDeCAZb_asURy1WF5Kh4pCv-=w122-h92-k-no,Không có,http://www.bvbinhdan.com.vn/,10.774024599999999,106.6812751,Bệnh viện công tại TPHCM
Công an Quận 1,,Sở cảnh sát ở Thành phố Hồ Chí Minh,Không có,Không có,,Không có,Không có,,,Công an Quận 1
UBND Phường Sài Gòn,"45-47 Lê Duẩn, Phường Sài Gòn, Quận 1, Thành phố Hồ Chí Minh, Việt Nam",Văn phòng chính quyền địa phương,+84 28 3823 4223,downloaded_images\104487aac89325d707887c50584a8769.jpg,https://lh3.googleusercontent.com/gps-cs-s/AG0ilSwp74QyUKJdTB6mKKhjJE8DI_Ud-L55-qcPJUGNgHc4DZ2hzi_UNiyjUHFM2SwTW4K82wxOcT1PgDlHXf7hUdKBXwBoh1Xq4NOa-o7LR-SeVBuiTIT_iV1SignrIwLmj80VrrM=w122-h92-k-no,Không có,http://phuongsaigon.gov.vn/,10.7805959,106.699416,Ủy ban nhân dân Quận 1
UBND Phường Bến Thành,"92 Nguyễn Trãi, Phường Phạm Ngũ Lão, Quận 1, Thành phố Hồ Chí Minh, Việt Nam",Văn phòng chính quyền địa phương,Không có,downloaded_images\eb5cf4d0863c6e89d83ccb24c6c40411.jpg,https://lh3.googleusercontent.com/gps-cs-s/AG0ilSwH4ahA1DQpdfhws7NH3MNPzuXf67IYE5Lb-LQn-5YCrzjZy1bBksaFZwdzWxqr4oGRtnNq_enxikxKxbxDgfCRbsCTogB3EQvs7jBqOQGIQQQCOlY8Kmibz81hL0TPL2bfZGB6iQ=w80-h106-k-no,Không có,Không có,10.7701847,106.69129699999999,Ủy ban nhân dân Quận 1
Trung Tâm Y Tế Quận 1,"2 Đặng Tất, Phường Tân Định, Quận 1, Thành phố Hồ Chí Minh 70000, Việt Nam",['Trung tâm y tế'],+84 28 3931 1314,downloaded_images\5ac855536ebef2edfa842e0a881513b2.jpg,https://lh3.googleusercontent.com/gps-cs-s/AG0ilSzx-nwRnzdFrGks4DTUm3SFaf5QVqrIl8cjuuh4n9C0t12_4ZHA7WxtVJstO1BeqifWworES9zCYeIG-q747ZR4998cBhxkVqf4si2giHGgTXakl72fd9YOXu3ckoNB9vGgfZUIow=w152-h86-k-no,Không có,http://trungtamytequan1.medinet.gov.vn/,10.7931338,106.6894559,Trung tâm y tế Quận 1
Bệnh viện Đa khoa Tân Định,,Bệnh viện ở Thành phố Hồ Chí Minh,Không có,Không có,,Không có,http://cs1.bvq1.vn/bvq1/,,,Bệnh viện Quận 1
Đội CSGT Quận 1,"82 Nguyễn Thái Học, Phường Cầu Ông Lãnh, Quận 1, Thành phố Hồ Chí Minh, Việt Nam",Trạm cảnh sát giao thông,Không có,downloaded_images\95fc490a780700496d489b16de1f870a.jpg,https://lh3.googleusercontent.com/gps-cs-s/AG0ilSxaISdeltihFFuc6h6glhaLRnmF8SXbzdRCSku5Wn-MdlKocKO1Hy0c4jk9nGhdUujX5b5v5jAh82XkpDf-iPUjyCjQfA3uhbzCbUSThufjo-p6ram4IHYJogjIeZFGE3hnliTU8Q=w122-h92-k-no,Không có,Không có,10.7669087,106.69626869999999,Đội Cảnh sát giao thông Quận 1
Đội CSGT - Công An Quận 1,"21 Đ. Trịnh Văn Cấn, Phường Cầu Ông Lãnh, Quận 1, Thành phố Hồ Chí Minh, Việt Nam",Sở cảnh sát,Không có,Không có,,Không có,Không có,10.767190099999999,106.6964699,Đội Cảnh sát giao thông Quận 1
Đội CSGT Bến Thành,"52 Nguyễn Khắc Nhu, Phường Cô Giang, Quận 1, Thành phố Hồ Chí Minh, Việt Nam",Trạm cảnh sát giao thông,+84 28 3836 7412,Không có,,Không có,Không có,10.7641946,106.693011,Đội Cảnh sát giao thông Quận 1
Đội PCCC & CNCH Quận 1,"QM6W+F4V, Phường Cô Giang, Quận 1, Thành phố Hồ Chí Minh, Việt Nam",Trạm cứu hỏa,Không có,downloaded_images\19bd17c005e8f09aedde2b911c980cf7.jpg,https://lh3.googleusercontent.com/gps-cs-s/AG0ilSy-4-GqL7IOOs-qd1Rv8YWLTRBwxJaQemTsKU6D-E0Ky0D3GN8-dlOA0xBLLuBwNZm2dgAsuN4xbMuJ6Oc4DTrOuh2EvIjfiC1cN3Jf7Cn64uXOjmkp3ilyIRHHbrmtENKCs64-zlKaS9op=w163-h92-k-no,Không có,Không có,10.7612448,106.6953063,Đội Cảnh sát PCCC và CNCH Quận 1
Phòng Cảnh sát Phòng cháy Chữa cháy và Cứu nạn Cứu hộ TP. Hồ Chí Minh,"258 Trần Hưng Đạo, Phường Nguyễn Cư Trinh, Quận 1, Thành phố Hồ Chí Minh 700000, Việt Nam",Trạm cứu hỏa,+84 28 3920 0996,downloaded_images\5634a24cfc770bfc46ccf7668ff0a205.jpg,https://lh3.googleusercontent.com/gps-cs-s/AG0ilSy-ILT_ja06r5oMBj743roUzbpPAj9WXJD2nVon9YMQqg1NYA4xUnTO9iQhOvd26fx9x4tffXadTZmrVhsQryq1bczZzrhPnppgUSmglEFbUbxOK3x5I4ZucvR56qkBNyvagp0yLw=w163-h92-k-no,Không có,Không có,10.760701899999999,106.6884906,Đội Cảnh sát PCCC và CNCH Quận 1
Phòng Công chứng Số 1,"97 Pasteur, Phường, Quận 1, Thành phố Hồ Chí Minh 700000, Việt Nam",Công chứng viên,+84 913 717 299,downloaded_images\2142053fff4fe9f613e326768db0215c.jpg,https://lh3.googleusercontent.com/gps-cs-s/AG0ilSwtUe-8QnM9pXFob8g6yNRzveaTdnjg3S9uwpRFU_7IRiXNMG8PGvqhQy77t2TpjY4EP9am92Sbz8T45gPfVo5SJ3F9XkEoqJyFAycRTm9ofGocc2gCVtchUdLWDGg9Yi32EJeXDQ=w80-h106-k-no,Không có,https://congchung.gov.vn/,10.7777534,106.69845699999999,Phòng công chứng Quận 1
Văn Phòng Công Chứng Nguyễn Kim Chi,"235 Trần Quang Khải, Phường Tân Định, Quận 1, Thành phố Hồ Chí Minh, Việt Nam",Dịch vụ pháp lý,+84 28 3848 1118,downloaded_images\e3c3f1073cf345f8106e3a1f101b3555.jpg,https://lh3.googleusercontent.com/p/AF1QipNCiiKfb_s4slJFMImod9eVC0_AvpvnMN2hlYWq=w80-h142-k-no,Không có,https://doanhnghiepmoi.vn/thong-tin/Van-Phong-Cong-Chung-Nguyen-Kim-Chi-22979.html,10.791333199999999,106.6888321,Phòng công chứng Quận 1
Văn phòng Công Chứng Bến Thành,"99 - 101 Nguyễn Công Trứ, Phường Nguyễn Thái Bình, Quận 1, Thành phố Hồ Chí Minh, Việt Nam",Công chứng viên,+84 28 3821 4999,downloaded_images\426f80c7fe54d1e25b9bdfb7e776915d.jpg,https://lh3.googleusercontent.com/gps-cs-s/AG0ilSxmC7oU45W6QNtnOO8UN8F6L4nTfaQDL65Ol49J-by-6aqtMJPGBMJgCdUeJxMZx3L5eNudAAeYK2RLz4T4M7gYrzs3KJQUCL8Gq4EOd-eIJVnYtdu2I_LBqQEZSbx_Unsi0pk=w122-h92-k-no,Không có,http://congchungbenthanh.com/,10.7693853,106.702584,Phòng công chứng Quận 1
Văn Phòng Công Chứng Sài Gòn,"136 Nguyễn Thái Bình, Phường Nguyễn Thái Bình, Quận 1, Thành phố Hồ Chí Minh 700000, Việt Nam",Công chứng viên,+84 28 3915 2339,downloaded_images\8eb1e28fad1dcc547db9e2bbdfe513f4.jpg,https://lh3.googleusercontent.com/gps-cs-s/AG0ilSzOfsHYkyAAnDUR-lvD3eTVjre_5DKMTtwLN9JMwonv4-XephKst_ad4XESXpcp1pmnb0X0JXU2w33cGAVfVynTwE0NYULYVggswINaEKeJiqPIccX9aHGvywS46jRc6RiUvTupOg=w163-h92-k-no,Không có,Không có,10.7681803,106.69834499999999,Phòng công chứng Quận 1
Văn Phòng Công Chứng Gia Định,"214/B2 Nguyễn Trãi, Phường Nguyễn Cư Trinh, Quận 1, Thành phố Hồ Chí Minh, Việt Nam",Công chứng viên,+84 28 6291 1116,downloaded_images\77f42dad9a0959968549e9d0fd916a6d.jpg,https://lh3.googleusercontent.com/gps-cs-s/AG0ilSxUOxd9mgGXqeYcRRPc7A59c0yp23VoVArzONzwicfHy4dnr5KLAG0zoRhL_-nh9mghgJPpPCRv5u_VeOkkLT9I9s_JEfhlFdzLgcCYQxjR-YVWvc1FqesOyKcn7dKO2zt4gnGr=w122-h92-k-no,Không có,Không có,10.7630684,106.68606919999999,Phòng công chứng Quận 1
Văn phòng Công chứng Nguyễn Thành Hưng - Công Chứng Quận 3,"57 Võ Thị Sáu, Phường Xuân Hoà, Quận 3, Thành phố Hồ Chí Minh 70000, Việt Nam",Công chứng viên,+84 1800 6365,downloaded_images\11468464be48544cd66c2c2e120f15ab.jpg,https://lh3.googleusercontent.com/gps-cs-s/AG0ilSx8kpNkSbOtEFwJz3EZ26XtkM9NjKCMjapUbdbv1q-W30q6qJZ0ZYjh-5iN-MAqibq3--dGhRq21SGpO3uxuVzh9K-yvtA955U5PJrxbE8fYTGfXci4lHw3Cy4NxWc8ARiWOzOO=w129-h92-k-no,Không có,http://congchungthinhtri.com/,10.7875912,106.69185159999999,Phòng công chứng Quận 1
Văn Phòng Công Chứng Trần Quốc Phòng,"214/B2 Nguyễn Trãi, Phường Nguyễn Cư Trinh, Quận 1, Thành phố Hồ Chí Minh, Việt Nam",Công chứng viên,+84 28 6291 1116,downloaded_images\5c6e4634363be075523ebb42bb3cd405.jpg,https://lh3.googleusercontent.com/gps-cs-s/AG0ilSzoFXTSP2pi5n9XFYSeg3utFGqDGOPHEvjewaLakFMq1T_a2YQgotNT6IjaDnA3wEgWFDWP0yq5ILGF54zgNBuAAD0uMPND1QQGgExwt6UCcF6wQ7Uxg95Ptd2hZ_l1-zDtQPYs=w80-h106-k-no,Không có,Không có,10.763174,106.686025,Phòng công chứng Quận 1
Dịch thuật công chứng tại HCM - Tâm Hoà Phát,"34 Lê Duẩn, Bến Nghé, Quận 1, Thành phố Hồ Chí Minh 70000, Việt Nam",Văn phòng công ty,+84 826 070 899,downloaded_images\15e31930da71eb60c5a216b38761efb7.jpg,https://lh3.googleusercontent.com/gps-cs-s/AG0ilSwQF4pmr8ZG4fhO68WpQlW18u5pm_ty37xrFG5sIVijrqpzmuODuRgJwoU0tpaP6NAqV5mpZlMwHxqSVJx5dKvOa50YRt_xZJQWzpAQDbKM5b-qVPtb_PITTnhosrkowjmX5t5U=w101-h92-k-no,Không có,https://dichthuattamhoaphat.com/,10.780987,106.6984947,Phòng công chứng Quận 1
Văn phòng Thừa Phát Lại Quận 1,"124 Trần Quang Khải, Phường Tân Định, Quận 1, Thành phố Hồ Chí Minh 700000, Việt Nam",Văn phòng công ty,+84 28 3820 6999,downloaded_images\c8c5fa40cee5cdd16d8697f36e84d0ed.jpg,https://lh3.googleusercontent.com/p/AF1QipM7p0LJ2GDHiMQRIS6_LKOYD7ilIOEdSl2PqHu-=w122-h92-k-no,Không có,http://manhhunggroup.com.vn/,10.7922569,106.6920225,Phòng công chứng Quận 1
Văn Phòng Công Chứng Bến Nghé,"31 Đ.Lê Thạch, Phường 13, Quận 4, Thành phố Hồ Chí Minh, Việt Nam",Công chứng viên,+84 902 452 450,downloaded_images\996f4ec4ce1b94f1bbbe675c1c0fbe45.jpg,https://lh3.googleusercontent.com/gps-cs-s/AG0ilSxuxjFrBLu1wezow6-96BcPjRjS38MgYFNnYPuWA784rYK1MLDxmZv0jlvWT4xT8d3hM-Ap8KvMe2i1_omKyl2S0iwaAEL020jA3nVD2JH3VBvBwUXRfei5VofkmJX99hoT4NT1=w122-h92-k-no,Không có,Không có,10.763986599999999,106.7061585,Phòng công chứng Quận 1
Văn phòng Công chứng Nguyễn Việt Cường,"184 Duong Ba Trac, Phường Rạch Ông, Quận 8, Thành phố Hồ Chí Minh, Việt Nam",Dịch vụ pháp lý,+84 28 3850 7979,downloaded_images\6aab9bcd0970d73e4621fca2d1a1466a.jpg,https://lh3.googleusercontent.com/gps-cs-s/AG0ilSwluOAAcrzAp5MVEoECuC0kch6l2P4gZYNKt60ajPxv63vUz5cllUpx7RH2gfR5s_850hvhjOBmbLRE_3t99g0FwpLlj8Al_CU1YB-YwW2YXJrZdNX2KPLwYNsXoVIbeg5PGd4=w80-h142-k-no,Không có,Không có,10.746857,106.68880899999999,Phòng công chứng Quận 1
Văn Phòng Công Chứng Quận 10 (cũng là Văn phòng Công chứng Nguyễn Lê Nghĩa),"Lê Hồng Phong/519 phường Vườn Lài, Phường 12, Quận 10, Thành phố Hồ Chí Minh, Việt Nam",Văn phòng công ty,+84 902 219 897,downloaded_images\acd7501992b13c69dbc30ecef34b2f75.jpg,https://lh3.googleusercontent.com/gps-cs-s/AG0ilSylr5HT_sl1WtXPigh6q6X1ORDSjZO_17_sUMdp2DaCJM3ITzpRJ2UFa83xV1-4cN2kTu-LkIZarBD_GcnVUo8tYT1rKTIL8oLQhJQ_HPPvX9Qpt5hHN9Qd1PwkRWWFiGktrWhg=w163-h92-k-no,Không có,http://vpccquan10.vn/,10.7671172,106.674369,Phòng công chứng Quận 1
VĂN PHÒNG CÔNG CHỨNG TRUNG TÂM THÀNH PHỐ HỒ CHÍ MINH (tên trước đây: VĂN PHÒNG CÔNG CHỨNG PHẠM XUÂN THỌ),"240 Nguyễn Thị Minh Khai, Phường 2, Quận 3, Thành phố Hồ Chí Minh, Việt Nam",Công chứng viên,+84 28 3930 3808,downloaded_images\be072732b1f21723c71a4533cd9a1d30.jpg,https://lh3.googleusercontent.com/gps-cs-s/AG0ilSxq-m3iY7eAMArEt0cCvtlBvFKet8CjG6rNpF04GRrJCL9KuB94S_jgDi9EbMw0yFMDqEeGVQP_1SsB3syOswjvXrBOYFYW4jbedaGQwVhu0h8HafpwUkxINvkAYXWR1Xo-ksi-2w=w123-h92-k-no,Không có,https://congchungtrungtam.com.vn/,10.7742991,106.6897592,Phòng công chứng Quận 1
Văn phòng Công Chứng Châu Á,"44 Võ Văn Tần, Phường 6, Quận 3, Thành phố Hồ Chí Minh, Việt Nam",Công chứng viên,+84 28 3930 0903,downloaded_images\e2f88c4c7c732d25f6e31cbcd93576a1.jpg,https://lh3.googleusercontent.com/gps-cs-s/AG0ilSwh0QXU7laZPkpd-tC5Msr3rYHuw1l378RBzWXAhMTltpPLbd1KBksUpf613z5QU1NaSRa9F7wuz8OyuxBBPwi-hbpFjhIKqPV9_s3TXem4QVSLzVC11xZbDbb7JQ_Bh4DyZ56X=w163-h92-k-no,Không có,http://congchungchaua.vn/,10.7780466,106.6913426,Phòng công chứng Quận 1
Văn Phòng Công Chứng Vũ Ái Lê,"138 Hà Huy Tập, Tân Hưng, Quận 7, Thành phố Hồ Chí Minh 00700, Việt Nam",Văn phòng công chứng tư pháp,+84 848 138 138,downloaded_images\c8605f5f01ce70d5697dead46756fba3.jpg,https://lh3.googleusercontent.com/gps-cs-s/AG0ilSxMMk0Hs8l8VH3Kpeia8MV-sKZ3cPQ-s_fwVaMa-FjpsCCFvjZnH9oFCZVsmwzDiMuLJ9N01ZeFjKQi6SZwRdkgBa0F-7Jxb9nRQCNRd4BJTiUgH60Sl2qQPbG4CPl8KkNZhZk=w80-h106-k-no,Không có,Không có,10.726587499999999,106.7091926,Phòng công chứng Quận 1
Văn Phòng Công Chứng Nguyễn Nguyệt Huệ,"156 Đ. Phạm Văn Chí, Phường 1, Quận 6, Thành phố Hồ Chí Minh, Việt Nam",Công chứng viên,+84 28 6275 9519,downloaded_images\6fa62685ff45b4e5f98e75293eaa87bb.jpg,https://lh3.googleusercontent.com/gps-cs-s/AG0ilSzraFB2FVCHcxrX_TG8M6YmRQsgf2SaIxA0xuq-fCTAGVI1zwvFcHemqjbPy677-aAZCHQTVX_F8R0u76Nz5kWNV7yySLKIdCZvxEgdG_FKLxEQhLMREqq7G2tqrIQewNChIEAL=w80-h94-k-no,Không có,https://congchungquan6.com.vn/,10.7454577,106.64774849999999,Phòng công chứng Quận 1
Dịch thuật công chứng 123,"số 168 Trần Hưng Đạo, Phường Nguyễn Cư Trinh, Quận 1, Thành phố Hồ Chí Minh, Việt Nam",Công chứng viên,+84 934 532 999,downloaded_images\5b58302c0d310115f7600e8f8effca94.jpg,https://lh3.googleusercontent.com/p/AF1QipPQHezudJ0KY0Z8Z46Aulsh2EN0jLpw7vyOotBb=w137-h92-k-no,Không có,https://dich123.vn/,10.763656899999999,106.69105139999999,Phòng công chứng Quận 1
DỊCH THUẬT CÔNG CHỨNG THP TẠI SÀI GÒN HCM,"34 Lê Duẩn, Bến Nghé, Quận 1, Thành phố Hồ Chí Minh, Việt Nam",Văn phòng công ty,+84 889 919 955,downloaded_images\159e67021805218b887d6304b6802c1d.jpg,https://lh3.googleusercontent.com/gps-cs-s/AG0ilSwC6Uawr1xNEYWwA6qB13l4x_bFmN_1UdOeFLZKht-HKI-M1RIW3KbAp4P8NF2RGhaw0PhOPv0bUDqZAVqMBn5MyzF_SidRYGh18lLWwnlG2k-fFMxRoRtYXcnCxuk1-XnjhVb4UnXA5y2A=w101-h92-k-no,Không có,http://dichthuattamhoaphat.com/,10.780987,106.6984947,Phòng công chứng Quận 1
Dịch thuật công chứng tại Quận 1,"Số 1 Hai Bà Trưng, Phường Tân Định, Quận 1, Thành phố Hồ Chí Minh, Việt Nam",Văn phòng công ty,+84 983 820 520,downloaded_images\cb2e89561ff81a210f9ebc5518784ce0.jpg,https://lh3.googleusercontent.com/p/AF1QipM6glR7yXXm-yYu9AhZJcupKhtbGzXihnvnNjfb=w138-h92-k-no,Không có,https://dichthuathaco.com.vn/,10.791995799999999,106.6869904,Phòng công chứng Quận 1
Công An Quận 3,"243 Cách Mạng Tháng Tám, Phường 4, Quận 3, Thành phố Hồ Chí Minh, Việt Nam",['Đồn cảnh sát'],+84 28 3839 2764,downloaded_images\7e6750055e87b1bf9506870bef6f58bd.jpg,https://lh3.googleusercontent.com/gps-cs-s/AG0ilSwZ0CcAXJMle5yp0JwW-XO_AZQmegtVFYTAC5XmReAnWGqQ2hcQsgMsn4U3lV1ksiE5go2sMAn_ProJgy15I6fQ9Glqjn_OzrGFF1UOl-sG4SkNlJEUeSDj0KCa4uByfU-PR_w=w152-h86-k-no,Không có,Không có,10.7768385,106.6825933,Công an Quận 3
UBND Phường Xuân Hoà,"99-99A Trần Quốc Thảo, Phường 7, Quận 3, Thành phố Hồ Chí Minh, Việt Nam",Văn phòng chính quyền quận,+84 28 3932 6868,downloaded_images\ac27e5f757a60dd04c0cdce0f9aaaa8d.jpg,https://lh3.googleusercontent.com/gps-cs-s/AG0ilSzaa_ZV2XQ20iiIyn0Z5Z0-7ollLCckFpQgEladndoMCJJ9VLgvkOSQ6dEL3jXehlmszVfOqkpzFsvxHuBn9fsE7TZhn-7wYNu_LxKx6b3mIXpjKhG3s16hTzDye-zGv5Mp8jk=w122-h92-k-no,Không có,http://quan3.hochiminhcity.gov.vn/,10.7828058,106.6861435,Ủy ban nhân dân Quận 3
UBND Phường 4 Quận 3,"337 Điện Biên Phủ, Phường 4, Quận 3, Thành phố Hồ Chí Minh, Việt Nam",Văn phòng chính quyền địa phương,+84 28 3832 8197,downloaded_images\8abcf6de282775f046bf7f0f0b57feed.jpg,https://lh3.googleusercontent.com/gps-cs-s/AG0ilSwa4gh4z_BK5Osq9cfCwfnGDDNBHAKsGA-s46eTRj8DIlW0_wY6Eqk990Lrq8iirtEdzz-1r4w2vTjTR53RxPl7OuW0SVKc7OADFw-hohKTiuzXHIWCCwAlX0BWRXSWCKXL05UVunlpj5Y=w122-h92-k-no,Không có,Không có,10.7753006,106.68248679999999,Ủy ban nhân dân Quận 3
Trung Tâm Y Tế Quận 3,"116 Trần Quốc Thảo, Phường 14, Quận 3, Thành phố Hồ Chí Minh, Việt Nam",['Trung tâm y tế'],+84 966 821 010,downloaded_images\33e94b89f1920a19cec523501600cf7e.jpg,https://lh3.googleusercontent.com/p/AF1QipOXVXYyQbIDwBZenw8-UcaYCow4jEkLO3WH-geb=w114-h86-k-no,Không có,http://trungtamytequan3.medinet.gov.vn/,10.7848247,106.68384569999999,Trung tâm y tế Quận 3
Bệnh Viện Quận 3,"114 Trần Quốc Thảo, Phường 14, Quận 3, Thành phố Hồ Chí Minh, Việt Nam",['Bệnh viện'],+84 28 3931 0400,downloaded_images\476357f59fad4c589ddc1055cef92af0.jpg,https://lh3.googleusercontent.com/gps-cs-s/AG0ilSxCAJcTiAGnx2vnZAZgpy-8zQsIk1RMw1PUf3_8f4OVTALaX8IV6J3DZU8LakryUKASFmZrIuq08A245MbkDNHg4_3CqD88YIysyR-1Bagj9eqGU4mUTNGU5bT2mrTms4IM9o2S=w86-h114-k-no,Không có,/url?q=https://bvquan3.medinet.gov.vn/default.aspx&opi=79508299&sa=U&ved=0ahUKEwjhivvUsaiRAxV2J0QIHaULD7oQ61gIFygS&usg=AOvVaw32Dp2xPxX-2GKkWFXjL8O3,10.7847873,106.6839614,Bệnh viện Quận 3
Đội Cảnh Sát Giao Thông Trật Tự Cơ Động Quận 3,"243 Cách Mạng Tháng Tám, Phường 4, Quận 3, Thành phố Hồ Chí Minh, Việt Nam",Văn phòng chính phủ,Không có,downloaded_images\2922abdd188d508b3b39e44ae5e417cb.jpg,https://lh3.googleusercontent.com/gps-cs-s/AG0ilSx544qZGGZ5GpmceicQGaJ2nwMFPQW4kcRCWczftKL6tlwvuElWxtBsQ7QYuS4R0wsP5ofa3p6SRNS8vvrWbkHuS1cBBgUL8PyJUT622U1AzQNn26ta_XTZH4mzpZtDHS3zZXuo8ekfy575=w122-h92-k-no,Không có,Không có,10.7768271,106.6825564,Đội Cảnh sát giao thông Quận 3
Đội CSGT Bàn Cờ,"369 Võ Văn Tần, Phường 5, Quận 3, Thành phố Hồ Chí Minh, Việt Nam",Trạm cảnh sát giao thông,+84 28 3839 1868,downloaded_images\7e74c80fa1b04cec6c4ba63894e2b6db.jpg,https://lh3.googleusercontent.com/gps-cs-s/AG0ilSyO2qBj5IIvE0Gp3dbjn6fBOZavSxFOicAiH4Dz5ACNHcY7HkuHN1llv7IXH80hXBZqmijFECB2uqzp_ttbzbjEah17rraNyGZI69yaExW1mCFXz-qt9u2BTZkml5fEW1e65NP2Vg=w80-h106-k-no,Không có,Không có,10.770780799999999,106.685099,Đội Cảnh sát giao thông Quận 3
Phòng CSGT Đường Bộ - Đội Tuần Tra Dẫn Đoàn,"16 Phạm Ngọc Thạch, Phường 6, Quận 3, Thành phố Hồ Chí Minh 700000, Việt Nam",Cảnh sát liên bang,Không có,Không có,,Không có,Không có,10.7839806,106.6947404,Đội Cảnh sát giao thông Quận 3
Đội PCCC & CNCH Quận 3,"106 Lý Chính Thắng, Phường Võ Thị Sáu, Quận 3, Thành phố Hồ Chí Minh, Việt Nam",['Trạm cứu hỏa'],+84 28 3526 5427,downloaded_images\bc295ecb9259539bbf320293977333e3.jpg,https://lh3.googleusercontent.com/gps-cs-s/AG0ilSxlyAUPv8OjacrewqlooEMakkOjIK_Q6NVmJA0wLKpwVaFoDxADBpBKX4DwXTM4jeksACRMgPlrpru25M8PjTbwFXh1EC9la1i6VDvh5ueOq6LnCtwy_LkyluUhMqDxn7A8SMY=w152-h86-k-no,Không có,Không có,10.789565,106.68549139999999,Đội Cảnh sát PCCC và CNCH Quận 3
Văn phòng Công Chứng Văn Thị Mỹ Đức,"47E Nguyễn Thông, Phường 9, Quận 3, Thành phố Hồ Chí Minh 70000, Việt Nam",Công chứng viên,+84 28 3526 2556,downloaded_images\d974dc2dad322a21c03cedbcf4fa292a.jpg,https://lh3.googleusercontent.com/p/AF1QipO3RhVlId0h4SAKhbweKYkqIz772S1dG_Nv-yXH=w129-h92-k-no,Không có,https://congchungmyduc.com/,10.779494999999999,106.68187499999999,Phòng công chứng Quận 3
Văn phòng Công chứng Nguyễn Hà Sơn,"Võ Văn Tần/281 Bàn Cờ, Phường, Quận 3, Thành phố Hồ Chí Minh 700000, Việt Nam",Văn phòng công chứng tư pháp,+84 931 000 096,downloaded_images\3c5f77eec16a2282d8684dac3d8e8dd3.jpg,https://lh3.googleusercontent.com/p/AF1QipMqbqJzpymvG8svx6c62_MrwMXGutd539cKyu1g=w122-h92-k-no,Không có,http://nguyenhason.com/,10.772293,106.6864494,Phòng công chứng Quận 3
HỆ THỐNG LUẬT THỊNH TRÍ - TT. LAW GROUP,"57 Võ Thị Sáu, Phường Xuân Hoà, Quận 3, Thành phố Hồ Chí Minh 700000, Việt Nam",Nhà cung cấp dịch vụ hỗ trợ pháp lý,+84 1800 6365,downloaded_images\56140dc3d1b81bf1d455e2a239ab617f.jpg,https://lh3.googleusercontent.com/p/AF1QipN1nAX27FbquyNRSzm7WIh4NIeTh5lffV1-mucJ=w80-h129-k-no,Không có,https://thinhtrigroup.com/,10.7876025,106.691835,Phòng công chứng Quận 3
Văn Phòng Công Chứng Lấp Vò,"210 Đ. 3 Tháng 2, Phường 12, Quận 3, Thành phố Hồ Chí Minh, Việt Nam",Công chứng viên,Không có,downloaded_images\4223670db8604020942a81e7a9980023.jpg,https://streetviewpixels-pa.googleapis.com/v1/thumbnail?panoid=7kyfXAUeINsB0Ph0KlTMdw&cb_client=search.gws-prod.gps&w=80&h=92&yaw=331.1306&pitch=0&thumbfov=100,Không có,Không có,10.774272199999999,106.6780562,Phòng công chứng Quận 3
Công An Quận 4,"14 Đoàn Như Hài, Phường 12, Quận 4, Thành phố Hồ Chí Minh, Việt Nam",['Đồn cảnh sát'],+84 28 3940 0188,downloaded_images\bf53af061920f78fd264464faab500a0.jpg,https://lh3.googleusercontent.com/gps-cs-s/AG0ilSxqw22VrruI0425N_xCrVX6npJy1ydDKmRLWQ83dXPWgX_5_mW2zNvjt7HI_QC9AzIrianDzQ858t9wNJS27FuSoEHc2B2Tomv_xK2tm-gflAXOuGUW8AQvZtmQ3i3pfF1UtAdC=w176-h86-k-no,Không có,Không có,10.7667934,106.7057798,Công an Quận 4
Trung Tâm Y Tế Quận 4,"217 Khánh Hội, Phường 2, Quận 4, Thành phố Hồ Chí Minh, Việt Nam",Dịch vụ y tế địa phương,+84 28 3826 5949,downloaded_images\ad4eb17b808138a3f4ad308d3c5ae745.jpg,https://lh3.googleusercontent.com/gps-cs-s/AG0ilSzaUiSC4vTigwyMXSOWXqPUmLaNOaVZi4a49FvEzMghW8DZbBBW7CzDk5FJo7o7mCApMlqUmtMfyKEC1FqnaRj7NYbEB1yqCN_gj7JauXR-kkYKJPDi55FNq06uhEsqy4oZcVf0JQ=w80-h106-k-no,Không có,Không có,10.758324199999999,106.6992894,Trung tâm y tế Quận 4
Trung Tâm Y Tế Quận 4,"2 Đ. Lê Quốc Hưng, Phường 12, Quận 4, Thành phố Hồ Chí Minh 70000, Việt Nam",Bệnh viện,+84 28 3539 2827,downloaded_images\90232a032a5d7080fe046737e32eb584.jpg,https://streetviewpixels-pa.googleapis.com/v1/thumbnail?panoid=6r-Xj4mnO66zJXytKmXgSg&cb_client=search.gws-prod.gps&w=80&h=92&yaw=143.40758&pitch=0&thumbfov=100,Không có,https://trungtamytequan4.medinet.gov.vn/,10.7653885,106.702652,Trung tâm y tế Quận 4
Trạm Y Tế Phường 4 Quận 4,"183 Tôn Thất Thuyết, Phường 4, Quận 4, Thành phố Hồ Chí Minh, Việt Nam",Trung tâm y tế,+84 28 3940 2921,downloaded_images\bd8cb503c13b572cfc8f5ee6889123b8.jpg,https://lh3.googleusercontent.com/gps-cs-s/AG0ilSy3CRFM74Y6_STyZrNOLeE1efu7DoAyUyXTyrFYkhSseG7_6EfENvdVVD574VYjGOlmvYXtgBiVn9uxUnz4ZBBBNU_S9_OTo2Ompat6xcFJkB9m1kLRAhw4ICKnQJeE-pEcp7H6RQ=w80-h106-k-no,Không có,https://timbenhvien.vn/chi-tiet/tram-y-te-phuong-4-quan-4/1190,10.753298,106.70354309999999,Trung tâm y tế Quận 4
Bệnh viện Quận 4,"65 Bến Vân Đồn, Phường 12, Quận 4, Thành phố Hồ Chí Minh, Việt Nam","['Bệnh viện', 'Bệnh viện đa khoa']",+84 838 261 568,downloaded_images\6d88a3b3891c24f23ea40d37e3aba3fd.jpg,https://lh3.googleusercontent.com/gps-cs-s/AG0ilSzn1qOwAA3VIRXYxK05_-gE7ymPrXyxkgSABphXr9VWRSDDKk2BfOl7Ax6FcPPWC8DCNTGHcDqcgzhySXVgPAPVaIMGSkSsVF4Q_2WpCH2dDLewwxY5f4HDDa34ytaPgT7t-ZQb=w86-h86-k-no,Không có,http://benhvienquan4.vn/,10.765396899999999,106.7021024,Bệnh viện Quận 4
Đội Cảnh Sát Trật Tự Giao Thông Quận 4,,Tòa án ở Thành phố Hồ Chí Minh,Không có,Không có,,Không có,Không có,,,Đội Cảnh sát giao thông Quận 4
PCCC quận 4,"QP33+88M, Phường 4, Quận 4, Thành phố Hồ Chí Minh, Việt Nam",Trạm cứu hỏa,Không có,Không có,,Không có,Không có,10.7533304,106.7032856,Đội Cảnh sát PCCC và CNCH Quận 4
Đội CC & CNCH KV13,"số 2 Đường T6, Tây Thạnh, Tân Phú, Thành phố Hồ Chí Minh, Việt Nam",Dịch vụ phòng cháy,Không có,downloaded_images\d24d404df52560e57dd161b817b1d01e.jpg,https://lh3.googleusercontent.com/gps-cs-s/AG0ilSyw_gZgKqW_3onmSOjQzW2GW7JaEag115LB_KCT28MfgcKaI3O-4VE1xO8BXbNB9ceKsiOqcpQ1mwR1y4YEl9YD_UiU488DBSvnkYVSdh3ewOiNjGLjH8hY2cRJ-b08pCCknbk3=w122-h92-k-no,Không có,http://www.pccc.hochiminhcity.gov.vn/,10.8097499,106.6172397,Đội Cảnh sát PCCC và CNCH Quận 4
Đội PCCC & CNCH Quận Bình Thạnh,"18A Phan Đăng Lưu, Phường 7, Bình Thạnh, Thành phố Hồ Chí Minh, Việt Nam",Trạm cứu hỏa,Không có,downloaded_images\390c31851b2fa54ae6e598e907654c5a.jpg,https://lh3.googleusercontent.com/gps-cs-s/AG0ilSy6yfKFs4qs6gUs41L3NC5eaETx56klujuozEhWSBwTx5nrHjV4mMEmsng34q9bmsTkMdKdqs-qYaobw6CwhBr2Obb_te_SaDSM0gUB0Zv8l4HPa-TGfyAv2fOnflT_nDyPWohsbA=w122-h92-k-no,Không có,Không có,10.803549199999999,106.690975,Đội Cảnh sát PCCC và CNCH Quận 4
Đội PCCC & CNCH Quận 8,"250 Đ.Tùng Thiện Vương, Phường Xóm Củi, Quận 8, Thành phố Hồ Chí Minh, Việt Nam",Trạm cứu hỏa,+84 28 3857 5943,downloaded_images\6a780a91817152c39c352821a00a43a8.jpg,https://lh3.googleusercontent.com/gps-cs-s/AG0ilSz1H_mWyDOh29tlLQXMxThbO7vXX-qOqO6yZ4RzeqBQzXG-pUOCweRCiUJvJokepy72YfWdCRRnY7N2iXUuA3R9ij7gM1Ik35atwya1i4FIGQAuxxRaHOhW8P5hd1psCc0lcmYy=w138-h92-k-no,Không có,Không có,10.7470289,106.661301,Đội Cảnh sát PCCC và CNCH Quận 4
Đội PCCC & CNCH Quận Gò Vấp,"108 Đ. Phan Văn Trị, Phường 1, Gò Vấp, Thành phố Hồ Chí Minh, Việt Nam",Trạm cứu hỏa,Không có,downloaded_images\fffd15e7a35b02066fa5631e1b4e49b2.jpg,https://lh3.googleusercontent.com/gps-cs-s/AG0ilSz5Sy1ilgzubA7lrJPWtq6JaSLYoCTnxz8ZNFOvy8ByRYApfk1PeSUHaqcTkjiKZ2Dgj9IDtMveRk_Ud8eGdXhyVT8PQEjIwBYnL356UR4uZxoqwEslmtA19selNP7UcmnkFsYs=w122-h92-k-no,Không có,Không có,10.8281362,106.6851117,Đội Cảnh sát PCCC và CNCH Quận 4
Đội PCCC & CNCH Quận Tân Bình,"856 Đ. Âu Cơ, Phường Tân Bình, Tân Bình, Thành phố Hồ Chí Minh, Việt Nam",Trạm cứu hỏa,+84 369 438 112,downloaded_images\b0943be92b3b763228140ab2c0c7c70d.jpg,https://lh3.googleusercontent.com/gps-cs-s/AG0ilSzCH69kaJeECtgvOTz2S3JLxvGEOJUdaTDBfVh0MKtgozfwpY3Zf7E2Uqk16p0h32dBxcLvu7hsqetdVXiO63Oc9iTHxoN3S1ULikqHSHpaG7JCqZe2R9cPPYTMrSXfjxbtA5qY=w80-h106-k-no,Không có,Không có,10.7935805,106.63911809999999,Đội Cảnh sát PCCC và CNCH Quận 4
VĂN PHÒNG CÔNG CHỨNG QUẬN 4 - LÊ QUỐC HUY,"Đoàn Như Hài, Phường 13, Quận 4, Thành phố Hồ Chí Minh, Việt Nam",Công chứng viên,+84 846 458 866,downloaded_images\3475e42a89be1d8c00529e745aedae96.jpg,https://lh3.googleusercontent.com/p/AF1QipNT1HPMIa0yYCd2eDxwO9cfpV0hMepy9N5O1klt=w87-h92-k-no,Không có,https://www.facebook.com/vanphongcongchungq4,10.7659875,106.70493239999999,Phòng công chứng Quận 4
Văn Phòng Công Chứng Nguyễn Minh Tấn,"53-55 Đ. Số 41, Phường 9, Quận 4, Thành phố Hồ Chí Minh, Việt Nam",Văn phòng công ty,+84 939 187 357,downloaded_images\a51001604e6ed3e3c28863479d3ca82c.jpg,https://lh3.googleusercontent.com/gps-cs-s/AG0ilSz4LrNYWUbDgnXO1d5QIOAVk9agw02uxaHgoCW024ton_j7FX4Rte-iWkTqEHEirfX_4Rx-8VuE7EyyDf_-VMPvXNC71Ts3wGH8IcsWeqFqAHGTS49HVUJe4fvMM1SzJ573xm8=w122-h92-k-no,Không có,https://nhanlucnganhluat.vn/nha-tuyen-dung/van-phong-cong-chung-nguyen-minh-tan.html,10.7590804,106.7007996,Phòng công chứng Quận 4
Công chứng Hội nhập,"230 Đ. Số 48, Phường 2, Quận 4, Thành phố Hồ Chí Minh, Việt Nam",Dịch vụ pháp lý,Không có,downloaded_images\ff3ae160214188f1a25bb406add41ca2.jpg,https://lh3.googleusercontent.com/gps-cs-s/AG0ilSwgn_NtCuTeRcp02Xj5jMSvGJCiKpaOn9sGD-n008VEeVjKaYiD6nfl0M8ZVbgAm5bm1SjuzDrbiA0rkcvRtPBGmX8XAMFbbG1SmAwIZj1ArT5Hxs9kQ6vf9eXd4tDDedIGswcKdi0S6qHg=w80-h106-k-no,Không có,Không có,10.7591538,106.6983601,Phòng công chứng Quận 4
"Phòng công chứng số 4, thành phố Hồ Chí Minh","25/5 Hoàng Việt, Phường 4, Tân Bình, Thành phố Hồ Chí Minh 70000, Việt Nam",Công chứng viên,+84 28 3811 7593,downloaded_images\2f055a6bcee9b2552a2603f8773e45fc.jpg,https://lh3.googleusercontent.com/gps-cs-s/AG0ilSzPMGEQdueVWH_we60CGs1_1R8y57wCII7wZt6b0pNt5VsNsvA9yQuoBqJF_-2da8_E2BANgy15WBHWAyQvtOOVHb_mG0355d4vZIlU2dF0YFQXxhi_nqNEbcroZxQGBw4jE5KzNuYp9Fks=w163-h92-k-no,Không có,http://phongcongchung4tphcm.vn/,10.7950313,106.65977819999999,Phòng công chứng Quận 4
Văn Phòng Công Chứng Quận 4,"122/27/88 Đ. Tôn Đản, Phường 8, Quận 4, Thành phố Hồ Chí Minh, Việt Nam",Văn phòng công ty,Không có,downloaded_images\8454baa1690b1a2feb3ec3efd78e267b.jpg,https://streetviewpixels-pa.googleapis.com/v1/thumbnail?panoid=Dqz89KncqD9vLAAfTcLKwQ&cb_client=search.gws-prod.gps&w=80&h=92&yaw=297.27536&pitch=0&thumbfov=100,Không có,Không có,10.758958999999999,106.704224,Phòng công chứng Quận 4
Công An Quận 5,"359 Trần Hưng Đạo, Phường 11, Quận 5, Thành phố Hồ Chí Minh, Việt Nam",Sở cảnh sát,+84 28 3855 0878,downloaded_images\986db58f717992b42d2ebb88f954d5dd.jpg,https://lh3.googleusercontent.com/gps-cs-s/AG0ilSwkO5iE0Ku6h6cp8UZjCZKviOvFkQg5_5ICCk8INP-0eCGNnZkU_8h5_y1NrY0jo61SXFnFW7fhDRwh0F3NVdiHJsz1ZERHPTYw1fKyraWY2E_g_ubLEXgEIHcfXb2ikhNUayUf=w80-h106-k-no,Không có,Không có,10.7519262,106.6606894,Công an Quận 5
Công An Phường 5 Quận 5,"23 Đ. Nguyễn Văn Đừng, Phường 5, Quận 5, Thành phố Hồ Chí Minh, Việt Nam",Cảnh sát dân sự,+84 28 3923 5687,Không có,,Không có,Không có,10.7511792,106.6710296,Công an Quận 5
Công An Phường 5 Quận 5,"77 Đ. Nghĩa Thục, Phường 5, Quận 5, Thành phố Hồ Chí Minh, Việt Nam",Đồn cảnh sát,+84 28 3923 4504,Không có,,Không có,Không có,10.752463899999999,106.6745696,Công an Quận 5
"Công An Phường 1, Quận 5","660 Võ Văn Kiệt, Phường 1, Quận 5, Thành phố Hồ Chí Minh, Việt Nam",Đồn cảnh sát,+84 28 3923 4550,downloaded_images\af8d4e21acd71cf0a49260ca918f249e.jpg,https://lh3.googleusercontent.com/gps-cs-s/AG0ilSxDUQXNCjIDwAURKh6uc4IWQmcTuSsME4CPALuQ0AJ_BcNfJB2A5UatxN169Rn4b-3m3gE1t6dZbrubshTCqGnzKTe5_ozu2WXxnO6IkjcoDRwIHFgJKOfLnOBVxWl4V7y-1dY15g=w80-h106-k-no,Không có,Không có,10.7520133,106.6837035,Công an Quận 5
UBND Phường Chợ Quán,"209 An Dương Vương, Phường 7, Quận 5, Thành phố Hồ Chí Minh, Việt Nam",Văn phòng chính quyền địa phương,+84 28 3855 0250,downloaded_images\f43eb2def607fdc65769866e2dec51f5.jpg,https://lh3.googleusercontent.com/gps-cs-s/AG0ilSxs12YrpljXxd6mPC_ecl-qZeZ4RB_i7l1s8cD7UiO9PAex4snOL9tKrFdn9KYsMe8oBYJ2oKtE3cZh7GMAqkxHw5bLLHs0xtD2qM5mBUx-NtT_XomDAW7PhDMyb7oyEvvHX0KzrA=w122-h92-k-no,Không có,Không có,10.7558677,106.6669355,Ủy ban nhân dân Quận 5
UBND Phường 5 Quận Bình Thạnh,"137 Nguyễn Văn Đậu, Phường 5, Bình Thạnh, Thành phố Hồ Chí Minh, Việt Nam",Văn phòng chính quyền địa phương,+84 28 3515 8505,downloaded_images\f9988af3ee5ed5e8005f309f9e0da7b3.jpg,https://lh3.googleusercontent.com/gps-cs-s/AG0ilSyOaVlWdHyEn41yPQ3AJKzd7fRjKrbEQNgvQDYzIDwdzxj_5J4aL5Mx2_N7k-u1mwydJrVh4U1GqfR1w7CiQU189BKwsfgMPKw-_cUG-vOm5I8V2sCpVCecrzR0rsw_7hmTl4CB=w163-h92-k-no,Không có,Không có,10.8100202,106.68963169999999,Ủy ban nhân dân Quận 5
ỦY BAN NHÂN DÂN PHƯỜNG 7 QUẬN 5,"268 Nguyễn Trãi, Phường 7, Quận 5, Thành phố Hồ Chí Minh, Việt Nam",Hiệp hội/Tổ chức,Không có,downloaded_images\e12ddbc057475205d6257e43c28d6fe2.jpg,https://streetviewpixels-pa.googleapis.com/v1/thumbnail?panoid=T_HTFi2J1dxAR4BSDJ1pEg&cb_client=search.gws-prod.gps&w=80&h=92&yaw=324.20584&pitch=0&thumbfov=100,Không có,Không có,10.7563721,106.67598319999999,Ủy ban nhân dân Quận 5
UBND Phường 5 Quận Phú Nhuận,"94 Phan Đăng Lưu, Phường 5, Phú Nhuận, Thành phố Hồ Chí Minh, Việt Nam",Văn phòng chính quyền địa phương,+84 839 954 199,downloaded_images\739f57994495566bdc5eae1c8055170d.jpg,https://lh3.googleusercontent.com/gps-cs-s/AG0ilSyLgHqSTYML77jPvrFUBZiNXBtr0g0Dj5oKB_ftcS6yjJGKTt-i4EfIXT1RGZtsa7SU4zEot7L6eLFlplUMnDocNt4vcLJM1FRY7OCgK14NxTVl0Y5k2Uf2xpfB39Fhd3Ol31FH=w122-h92-k-no,Không có,http://www.phunhuan.hochiminhcity.gov.vn/,10.803868,106.68473399999999,Ủy ban nhân dân Quận 5
UBND Phường An Đông,"203 An Dương Vương, Phường 7, Quận 5, Thành phố Hồ Chí Minh 70000, Việt Nam",Văn phòng chính quyền địa phương,Không có,downloaded_images\1728bfeb72e190e3d1d420cdde300773.jpg,https://lh3.googleusercontent.com/gps-cs-s/AG0ilSyaKV46aRSdr2R4ncPd0N3iUrH4-RWsToRSVF7sVVRlwNSYKuyitsR3K2pCuVu0NhEiWSBR4EvfVAl2PONSP1oiK_R2SnA0b-cem4i4hdCVCnGdy_ksYfkzJ6kbpSs9XgvIG0cpgNnUKUCm=w80-h100-k-no,Không có,Không có,10.756020999999999,106.6677938,Ủy ban nhân dân Quận 5
Trung Tâm Y Tế Dự Phòng Quận 5 - Cs 2,"164 Nguyễn Tri Phương, Phường 9, Quận 5, Thành phố Hồ Chí Minh, Việt Nam",Trung tâm y tế,+84 28 3835 9685,downloaded_images\7e483d1dd94178fa64650cea4bcfd482.jpg,https://lh3.googleusercontent.com/gps-cs-s/AG0ilSzpO08XZrGGS7L_cAWvJOeSKQDV7DjY3wSctlVccFxttoKK3s1s1FurENk3EPwXg-Wk2eKOfALHhVa9teU3l0cjaBh2iiQzNpoPTNVP8ewmHkbNHZsikIFAlpgm6UVHhkM_9qco=w92-h92-k-no,Không có,https://timbenhvien.vn/chi-tiet/trung-tam-y-te-du-phong-quan-5---co-so-2/766,10.758282099999999,106.6693964,Trung tâm y tế Quận 5
Trung Tâm Y Tế Phường 10 Quận 5,"225B Trần Hưng Đạo, Phường 11, Quận 5, Thành phố Hồ Chí Minh, Việt Nam",Trung tâm y tế,+84 28 3855 1525,downloaded_images\5aa758a9ff9add614f712972151c9835.jpg,https://streetviewpixels-pa.googleapis.com/v1/thumbnail?panoid=DWEsZJdqWksGbfWvJTZ2ZA&cb_client=search.gws-prod.gps&w=80&h=92&yaw=115.87357&pitch=0&thumbfov=100,Không có,https://tytphuong10q5.medinet.gov.vn/Default.aspx,10.7521458,106.66406789999999,Trung tâm y tế Quận 5
Trạm Y tế Phường 5 Quận 5,"50 Đ. Nguyễn Văn Đừng, Phường 5, Quận 5, Thành phố Hồ Chí Minh, Việt Nam",Bệnh viện,+84 915 959 810,downloaded_images\d7ba8e4d7b38eb37c8af5d9aa7f73794.jpg,https://lh3.googleusercontent.com/p/AF1QipPbmM1p7uAlQqao7UzYDbiJ2-1zDpmCpQSiE3Rn=w80-h106-k-no,Không có,https://zalo.me/tramyte,10.752023999999999,106.6712416,Trung tâm y tế Quận 5
Bệnh viện Quận 5,"642 A Nguyễn Trãi, Phường 11, Quận 5, Thành phố Hồ Chí Minh 700000, Việt Nam",Bệnh viện chính phủ,+84 28 3855 0235,downloaded_images\1367500ae8c404521cd212c4f43824d9.jpg,https://lh3.googleusercontent.com/gps-cs-s/AG0ilSwGa-iTfMP7hrzGCd-YzBbpx6db9W0TGOYXQGJAcceuQY-0lMOiKUAywyB9eoHxL9u1czJyZaB0M9tM5zeOkW5y1oMDh-XMZ6isjSmtBQOWBv6SHHkLlJAT1_r7bFcrGGTaehHsRA=w163-h92-k-no,Không có,Không có,10.754035199999999,106.66581029999999,Trung tâm y tế Quận 5
Tt Y Tế Dự Phòng Tp. Hcm,"699 Trần Hưng Đạo, Phường 1, Quận 5, Thành phố Hồ Chí Minh, Việt Nam",Trung tâm y tế,Không có,downloaded_images\b0713012763de6ee688cc815e4b0edc8.jpg,https://lh3.googleusercontent.com/gps-cs-s/AG0ilSwH3_zkNJ-7_8zNbebu8XJqKd_3Gihu1ohDcaYAeauu1P4UTVh7LKVkX8bCFEDI0nqzQPNiaHPKxdR1wiaB35mZSvlp8t_qtKJLkUg88DK3yjb6Al33VQfqpZswvhsZZADM6Rea=w124-h92-k-no,Không có,Không có,10.7556576,106.6833267,Trung tâm y tế Quận 5
Trạm Y Tế Phường 9 Quận 5,"Chung cư 100 Hùng Vương, 100 Hùng Vương, Phường 9, Quận 5, Thành phố Hồ Chí Minh, Việt Nam",Trung tâm y tế,+84 28 3833 0549,downloaded_images\99582f57d7edc3570e0998774f005f33.jpg,https://lh3.googleusercontent.com/gps-cs-s/AG0ilSzhN-ZnLrHs5avdNtVAWZLmp6TOktSNCQpRqsna5TRHdIwiYwZI-MqmOrYLA2UXAy4nfiqiglmOKSPe1aMibfU0pDURqqnjX7NSrgDxlcwBZDFstqhQ1j2Rq0Uk4xY9KhkU5DDC=w80-h106-k-no,Không có,https://timbenhvien.vn/chi-tiet/tram-y-te-phuong-9-quan-5/774,10.758111099999999,106.6699905,Trung tâm y tế Quận 5
Trung Tâm Y Khoa Diag,"309 Đường Trần Phú, Phường 3, Quận 5, Thành phố Hồ Chí Minh 72710, Việt Nam",Trung tâm y tế,+84 1900 1717,downloaded_images\605609e237a5c10796a1913a553530cd.jpg,https://lh3.googleusercontent.com/p/AF1QipOO21d5iBALJhTsM87vZMIFHFYQK56nXPAv7l9c=w122-h92-k-no,Không có,https://diag.vn/,10.75642,106.6734042,Trung tâm y tế Quận 5
Trạm Y Tế Phường 4 Quận 5,"53 Trần Phú, Phường 4, Quận 5, Thành phố Hồ Chí Minh, Việt Nam",Trung tâm y tế,+84 28 3833 0244,downloaded_images\865554315dc85a2a399821611c521b6d.jpg,https://lh3.googleusercontent.com/gps-cs-s/AG0ilSwQHFLaJQhGDPSG8yOzh4OiyWmnxYs16zS3j7ZSeN0Vv4AwiSeny8ed9E-Aoo_AIeSuZ7dr9wGJQXNtIZ6P7jMtcwQPFdpUmLHQ8qnalPJgO_DqFMwR894Kn1X34QCvK2mNfcUzctrt9Dw=w125-h92-k-no,Không có,https://timbenhvien.vn/chi-tiet/tram-y-te-phuong-4-quan-5/772,10.7618186,106.67854659999999,Trung tâm y tế Quận 5
Trạm Y Tế Phường 7 Quận 5,"282 Trần Phú, Phường 7, Quận 5, Thành phố Hồ Chí Minh, Việt Nam",Trung tâm y tế,+84 28 3923 5243,downloaded_images\c92722b37b311f855467e0f035a6aa48.jpg,https://streetviewpixels-pa.googleapis.com/v1/thumbnail?panoid=4dwRr1NFFIuD5JfkmW1e3g&cb_client=search.gws-prod.gps&w=80&h=92&yaw=319.88757&pitch=0&thumbfov=100,Không có,https://tytphuong8q5.medinet.gov.vn/,10.7567699,106.67317709999999,Trung tâm y tế Quận 5
Trung Tâm Y Tế Quận 5 (Trụ sở 3),"168 Nguyễn Tri Phương, Phường 9, Quận 5, Thành phố Hồ Chí Minh, Việt Nam",Dịch vụ y tế địa phương,Không có,downloaded_images\84a5b40154c66fa2bc77c188091b03db.jpg,https://streetviewpixels-pa.googleapis.com/v1/thumbnail?panoid=tJXLq4dlDwKkb9qd7M409w&cb_client=search.gws-prod.gps&w=80&h=92&yaw=82.70456&pitch=0&thumbfov=100,Không có,Không có,10.7595122,106.66930769999999,Trung tâm y tế Quận 5
Trạm Y Tế Phường 1 Quận 5,"76 Nguyễn Biểu, Phường 1, Quận 5, Thành phố Hồ Chí Minh, Việt Nam",Trung tâm y tế,+84 28 3836 6369,downloaded_images\724af47f3fb3f1d9df4c5a5868b53ff2.jpg,https://streetviewpixels-pa.googleapis.com/v1/thumbnail?panoid=cMkNlZfuIsoVjPuCXjNNew&cb_client=search.gws-prod.gps&w=80&h=92&yaw=9.382302&pitch=0&thumbfov=100,Không có,https://tytphuong1q5.medinet.gov.vn/Default.aspx,10.755133299999999,106.68409369999999,Trung tâm y tế Quận 5
Trung Tâm Y Tế Dự Phòng,"3 Nguyễn Trãi, Phường 2, Quận 5, Thành phố Hồ Chí Minh, Việt Nam",Trung tâm y tế,+84 28 3855 3247,downloaded_images\0c5e896c146caecf23796be4bb5cd7e2.jpg,https://streetviewpixels-pa.googleapis.com/v1/thumbnail?panoid=rQP7HNeh6AJfgvrscwXQgw&cb_client=search.gws-prod.gps&w=80&h=92&yaw=166.73862&pitch=0&thumbfov=100,Không có,Không có,10.759106899999999,106.6834521,Trung tâm y tế Quận 5
Trạm Y Tế Phường 7 Quận 5,"123 Đ. Bùi Hữu Nghĩa, Phường 7, Quận 5, Thành phố Hồ Chí Minh, Việt Nam",Trung tâm y tế công cộng,+84 28 3836 3941,downloaded_images\91b60d9a7559c6a125d852283e82583b.jpg,https://lh3.googleusercontent.com/gps-cs-s/AG0ilSzC-Um7M8SAVlUNqAj8JiMhckzKQxJVrwCAonlMhfRRGIrwRetM_x2ymNiMK70JaLt0lHF2joFULQXqMz5cutqvleQiWU9UI84EkdDHn9BYQe5MsMPLm2j9OIzQFnaxRl2KR9C7=w80-h106-k-no,Không có,https://timbenhvien.vn/chi-tiet/tram-y-te-phuong-7-quan-5/783,10.7540599,106.6745172,Trung tâm y tế Quận 5
Trạm Y Tế Phường 15 Quận 5,"262 Đ. Hồng Bàng, Phường 12, Quận 5, Thành phố Hồ Chí Minh, Việt Nam",Trung tâm y tế,+84 28 3955 6625,downloaded_images\b1fb4c2d321a2911895d7a900a9d4348.jpg,https://lh3.googleusercontent.com/gps-cs-s/AG0ilSxy0VrbyID4FYEtypwXNN2vjj5NIJBHp3-s0eSfg8XnJvS94YFjOW2IxcHRk4rdw_XUn2SyWV9gr1jek8pJXixMLSTKDybztIrjMcZDiQUM-sDJ5XGBSdE2BnGlIs2QsTnUyp2M=w80-h142-k-no,Không có,Không có,10.7538137,106.65315109999999,Trung tâm y tế Quận 5
Bệnh viện Quân Y 7A,"466 Nguyễn Trãi, Phường 8, Quận 5, Thành phố Hồ Chí Minh 700000, Việt Nam",Bệnh viện quân đội,+84 28 3836 6789,downloaded_images\7965e89eb6129e06eedb15a9635b178d.jpg,https://lh3.googleusercontent.com/gps-cs-s/AG0ilSyAN_eTMnFod-Gz-fGJ280Kk2gwFlK4g2Cx-FCTfiTFHVXGdsqnMcJB4C6XR_HYpzDxqqIrxD2WvCi4RSv672PBz9lMqvF3NoirllB2VbqUrHonE0edsnomu2v-EBfBw2-TrZHhuA=w163-h92-k-no,Không có,http://bvquany7a.vn/,10.755826299999999,106.67095379999999,Trung tâm y tế Quận 5
Bệnh viện Nguyễn Tri Phương,"468 Nguyễn Trãi, Phường 7, Quận 5, Thành phố Hồ Chí Minh 70000, Việt Nam",Bệnh viện,+84 28 3923 4332,downloaded_images\7028878350a330fb9ad8a85a2cdae405.jpg,https://lh3.googleusercontent.com/gps-cs-s/AG0ilSxzC3y_LETXxjggwfA86vW9pW36O9raeJ-Jel4h0VNPEkRVnPhSSwZEusdNsPdVvZ9b-A855R1mGoo8SL-swbbDz881JTWRpJJIL8pGPMGC_JbO93hDQmEQhfCwQowO7myQ6i3V=w122-h92-k-no,Không có,https://bvnguyentriphuong.com.vn/,10.7550025,106.6705345,Trung tâm y tế Quận 5
Bệnh viện Bệnh Nhiệt đới,"764 Võ Văn Kiệt, Phường 1, Quận 5, Thành phố Hồ Chí Minh 700000, Việt Nam",Bệnh viện chuyên khoa,+84 28 3923 5804,downloaded_images\f3480635681bf04d1132bd67dd015fc5.jpg,https://lh3.googleusercontent.com/gps-cs-s/AG0ilSxLKLB_GFzQxu-erHnOaumJH2VvT9fI4M8h6CDT6tcEhTAlx08G5I5BSST-OU3YAeY1Q9f5mLxdezoP4-G5S3SsPO96EAUZT3zMADXSQPfAX1iGheAV3-UjBmfphpgyWBnpGNv0=w122-h92-k-no,Không có,http://www.bvbnd.vn/,10.752660599999999,106.67891639999999,Trung tâm y tế Quận 5
Bệnh viện Chợ Rẫy,"201B Nguyễn Chí Thanh, Phường 12, Quận 5, Thành phố Hồ Chí Minh 700000, Việt Nam",Bệnh viện đa khoa,+84 28 3855 4137,downloaded_images\7d7449e05646d5791b2886c170bc63a2.jpg,https://lh3.googleusercontent.com/gps-cs-s/AG0ilSzQgw7_-IZSNjKa0829DEzSs-lYHmdEzVlJBDjo7_oAfiA2N98xx1EOW_NCkIqyh5ZPOkElD306m4hlhDg1-mtyQudCid86TKgBkrylviAeN7-4XZ3PoIMeMuLX7BOJhYplMfQ7=w122-h92-k-no,Không có,http://www.choray.vn/,10.7578646,106.6595131,Trung tâm y tế Quận 5
Bệnh viện Quận 5,,Bệnh viện chính phủ ở Thành phố Hồ Chí Minh,Không có,Không có,,Không có,Không có,,,Bệnh viện Quận 5
Đội Cảnh Sát Giao Thông - Trật Tự - Cơ Động Quận 5,"946 Võ Văn Kiệt, Phường 5, Quận 5, Thành phố Hồ Chí Minh, Việt Nam",Văn phòng chính quyền địa phương,+84 28 3923 4330,downloaded_images\9c01160ddca5a0910beb9732064429cf.jpg,https://lh3.googleusercontent.com/gps-cs-s/AG0ilSyCxzN696S8qTk4I15xauSkl7FlwJZUcjPDWyR5aRpFO0h9LxEMwIQu7y4m64Wa-DEsiDRbTgMO_-fvDWP_VifP0a4MJestJOxJlLOTgUxvxq4cnPrI-qJPvEXUeLstWAkvl-81mKKD0SnS=w80-h106-k-no,Không có,Không có,10.749663799999999,106.67315269999999,Đội Cảnh sát giao thông Quận 5
ĐỘI CHỈ HUY GIAO THÔNG VÀ ĐIỀU KHIỂN ĐÈN TÍN HIỆU GIAO THÔNG - PHÒNG CSGT ĐB ĐS TP. HỒ CHÍ MINH,"171 Nguyễn Biểu, Phường 2, Quận 5, Thành phố Hồ Chí Minh, Việt Nam",Văn phòng chính phủ,+84 28 3837 7137,downloaded_images\e3b294756680daf10054c7270293088f.jpg,https://lh3.googleusercontent.com/gps-cs-s/AG0ilSwt4wuC7sy7JLdrQt3WGNcyLUUbtcnrWgCbTaGFN2p2_Wib-GXEpl1LGwyWuaqBd34g3aMOAhoOljy4EBGqlFnVM1SFc26yzrFPvNbskQ1m4O-Hum9dtEv1XmcPIYFE6pF9705MMw=w80-h106-k-no,Không có,Không có,10.7566236,106.6832936,Đội Cảnh sát giao thông Quận 5
Đội PCCC & CNCH Quận 5,,Trạm cứu hỏa ở Thành phố Hồ Chí Minh,Không có,Không có,,Không có,Không có,,,Đội Cảnh sát PCCC và CNCH Quận 5
VĂN PHÒNG CÔNG CHỨNG CHỢ LỚN,"467 Đ. Hồng Bàng, Phường 14, Quận 5, Thành phố Hồ Chí Minh 70000, Việt Nam",Công chứng viên,+84 909 769 768,downloaded_images\46c8b180648b32fcca93f8de05830ee1.jpg,https://lh3.googleusercontent.com/p/AF1QipNv4aW0MNvVwOnLDZnssctwpakVyUWWoyFLJRgo=w80-h93-k-no,Không có,http://congchungcholon.vn/,10.753603199999999,106.6543794,Phòng công chứng Quận 5
Công Chứng Hoàng Xuân Ngụ,"198A Đường Trần Bình Trọng, Phường 4, Quận 5, Thành phố Hồ Chí Minh, Việt Nam",Công chứng viên,+84 28 3836 6699,downloaded_images\4062173918744f75299b4ed20eb26cf1.jpg,https://lh3.googleusercontent.com/gps-cs-s/AG0ilSxjOpphsGH4vZ3-NE4R377kODh9eRUxL5J5yLW_swNeg2ni3ZI2khxfpUbfd4gbmeQsdo1MIlJCtY18wvhJ0MHvALT8HyD_G5iS4ri7vTuxoZK4taPiMDCho5ojah1xu9MT81o=w122-h92-k-no,Không có,http://www.congchunghoangxuan.vn/,10.7604927,106.68007999999999,Phòng công chứng Quận 5
Phòng Công chứng số 2,"94-96 Đ. Ngô Quyền, Phường 7, Quận 5, Thành phố Hồ Chí Minh, Việt Nam",Công chứng viên,+84 28 3855 1717,downloaded_images\283123d8fe0511e37fede89028835343.jpg,https://lh3.googleusercontent.com/gps-cs-s/AG0ilSwnA8h015XBjht9lLQN3EUm0hDo06h0M3NacqDxTKuYBHAsvApPVL1--SRMMEIbqqbdQpUoIO4YCFxaYBR2VvMnrBMnXuHosA5LbPLsmI-m60EjyGcrLnJ0FcQj6ne2eROS1UID9g=w138-h92-k-no,Không có,http://congchung2tphcm.com/,10.753497399999999,106.66673929999999,Phòng công chứng Quận 5
Văn phòng Thừa Phát Lại Quận 5,"805 Trần Hưng Đạo, Phường, Chợ Quán, Thành phố Hồ Chí Minh, Việt Nam",Người tống đạt trát tòa,+84 28 3924 6808,downloaded_images\c1753e570b735abd30154f2123680461.jpg,https://lh3.googleusercontent.com/p/AF1QipMqHNXPsYzM0fE4IvYSpJRd65On95VoaAcFPq8O=w122-h92-k-no,Không có,https://thuaphatlaicholon.vn/,10.755162799999999,106.6810189,Phòng công chứng Quận 5
Văn phòng Công chứng Hoàng Xuân Hoan,"187 An Dương Vương, Phường An Đông, Quận 5, Thành phố Hồ Chí Minh, Việt Nam",Công chứng viên,+84 901 369 797,downloaded_images\5f3af369a0f2077d9a7463157b3b3b00.jpg,https://lh3.googleusercontent.com/gps-cs-s/AG0ilSxjvwKIYngYbPLVPthJGu6zrWkQAiE3wE8EJB0pKI_KfjajNIWFENG02bBGX4UvalzsvSwssH9-PPTfhXtrxzV9BHuiwdC-O9qmGPlZz0vgdCpJzp2IjSHG0a0SZdi890JUon4f=w85-h92-k-no,Không có,http://congchunghoangxuanhoan.com/,10.7562953,106.6688684,Phòng công chứng Quận 5
Phòng Công Chứng Số 5,"278 Đ.Nguyễn Văn Nghi, Phường 1, Gò Vấp, Thành phố Hồ Chí Minh, Việt Nam",Công chứng viên,+84 28 3894 3327,downloaded_images\f55624c7907fe38a2833138236fdd749.jpg,https://lh3.googleusercontent.com/gps-cs-s/AG0ilSzQXqOWx2_FnM8Lxu1qSclKCzSJ-tAcT9b11qhBbl3TTW8vjBrXxMKNhm6j2LhTsgMwTSzfZRL_Kd0xDNZbzn-ipWzkKTNkVXKCdAr-OF48feONMyDjUtiLZVYsjdDRMnslW0u6=w163-h92-k-no,Không có,https://sotuphap.hochiminhcity.gov.vn/gt-cc5,10.8257627,106.68444439999999,Phòng công chứng Quận 5
Công ty chứng minh tài chính xin visa Nguyễn Lê,"474A Trần Hưng Đạo, Phường 2, Quận 5, Thành phố Hồ Chí Minh, Việt Nam",Văn phòng công ty,+84 909 444 666,downloaded_images\176c194119ec7fc28dd2b86460e1dc58.jpg,https://lh3.googleusercontent.com/p/AF1QipPTI6GDrWgGTaksy5EcqUjIwx-D9tvR7vZSwNOK=w112-h92-k-no,Không có,http://taichinhnguyenle.com.vn/,10.7557853,106.6822541,Phòng công chứng Quận 5
văn phòng luật sư 24 giờ,"58 Đ. Ngô Quyền, Phường 7, Quận 5, Thành phố Hồ Chí Minh, Việt Nam",Dịch vụ pháp lý,+84 903 363 054,downloaded_images\ef88dd5198bf49b5766736dd851b6bc4.jpg,https://lh3.googleusercontent.com/p/AF1QipPvQf8plvaWSLRoUj-g9ibBYviahaR0Ywtlbzcd=w122-h92-k-no,Không có,Không có,10.753879699999999,106.6666475,Phòng công chứng Quận 5
Văn Phòng Công Chứng Nguyễn Văn Lâm,"426 Trần Hưng Đạo, Phường 11, Quận 5, Thành phố Hồ Chí Minh, Việt Nam",Công chứng viên,Không có,downloaded_images\3e6bd14085d525d74f704671d090d551.jpg,https://streetviewpixels-pa.googleapis.com/v1/thumbnail?panoid=8ZBwkbuAYKmj2GPYX71x0Q&cb_client=search.gws-prod.gps&w=80&h=92&yaw=7.4478736&pitch=0&thumbfov=100,Không có,Không có,10.7521782,106.6594701,Phòng công chứng Quận 5
Công An Quận 6,,Sở cảnh sát ở Thành phố Hồ Chí Minh,Không có,Không có,,Không có,http://www.quan6.hochiminhcity.gov.vn/,,,Công an Quận 6
UBND Phường Bình Tiên,,Văn phòng chính quyền địa phương ở Thành phố Hồ Chí Minh,Không có,Không có,,Không có,http://www.quan6.hochiminhcity.gov.vn/,,,Ủy ban nhân dân Quận 6
Trung tâm Y tế Quận 6,"A14/1 Bà Hom, Phường 13, Quận 6, Thành phố Hồ Chí Minh, Việt Nam",['Trung tâm y tế'],+84 28 3877 6546,downloaded_images\c05ee17eb9fcd73fc814ea84c3e45446.jpg,https://lh3.googleusercontent.com/gps-cs-s/AG0ilSwpB6JgEiKupCErX5HJbuI6nO4x-tzwdWqESQroJtfz4SYIsZGkkeMb_r6uWeKAtdnuj6iwxdqT9F3Re5-8KQmAHXlK-841kyZykMc8keoGnyFr_laPgcWU-UidZnBEkuwwywixHQ=w152-h86-k-no,Không có,Không có,10.7544228,106.6294253,Trung tâm y tế Quận 6
Bệnh viện Quận 6,"Đ. Chợ Lớn, Phường 11, Quận 6, Thành phố Hồ Chí Minh, Việt Nam",,Không có,downloaded_images\e4c30d93cd52b2bc06de66e486b8084c.jpg,https://lh3.googleusercontent.com/gps-cs-s/AG0ilSzzo7FvLlkNOgQ8nHofvODRNXoX6iZnANYySi2X6ljszN2Gxyputwe7Nag51XwBKfpd1_tQkrGAbuOTAck-LS-utZtZ3wxqxGLmGItZ9l7NrFIYWFFr-1C7ZbNBgm4_bBIWQNeu3Q=w86-h152-k-no,Không có,Không có,10.7465528,106.6345645,Bệnh viện Quận 6
Đội CC & CNCH Khu Vực 6,"149 Đ. Cao Văn Lầu, Phường 1, Quận 6, Thành phố Hồ Chí Minh, Việt Nam",['Trạm cứu hỏa'],Không có,downloaded_images\9ff6170e807244ac3abc229aa01d46f9.jpg,https://lh3.googleusercontent.com/gps-cs-s/AG0ilSy8HXNTe-f5j7E7UXrPF7bkGCynC8hdY-x7sY1qlVkGxsNR4uPmocH_WvSlPvJ3EuhqGqUPdcoLXZ_0EIpedPLMliClAiQUwrbjwFxomwqx5PTOhaCSzTJNxw8pH3VetWa2Qd5h=w86-h114-k-no,Không có,Không có,10.747585599999999,106.6490068,Đội Cảnh sát PCCC và CNCH Quận 6
Công an Quận 7,"1366 Huỳnh Tấn Phát, Phú Mỹ, Quận 7, Thành phố Hồ Chí Minh, Việt Nam",['Cảnh sát dân sự'],+84 28 3785 1787,Không có,,Không có,Không có,10.7109638,106.73689069999999,Công an Quận 7
UBND Quận 7,"7 Tân Phú, Quận 7, Thành phố Hồ Chí Minh, Việt Nam","['Văn phòng chính quyền địa phương', 'Văn phòng chính phủ']",+84 28 3785 1032,downloaded_images\2ef32f6d747a7dab43ec148a24bff4af.jpg,https://lh3.googleusercontent.com/gps-cs-s/AG0ilSzbIryY_Y700aXLpHDMMQN8kfAvoF6aaSjK0o6zzRPB_yooI6nw2ykspYxqVmElXGjzUyTZPszN9QUP0AZg8gSs9NIKcM71RnBAo01pbVg9sBrN_-MGwHasJXkfVpJ_WNnwE3Cc=w114-h86-k-no,Không có,Không có,10.7323285,106.7266394,Ủy ban nhân dân Quận 7
Thiết bị y tế Quận 7,"101 Đ. Nguyễn Thị Thập, Tân Phú, Quận 7, Thành phố Hồ Chí Minh, Việt Nam",Trung tâm y tế,+84 28 3773 2791,downloaded_images\bd1e70bd0b890738423bff809071a917.jpg,https://lh3.googleusercontent.com/gps-cs-s/AG0ilSwueyKjKFUCm0-5hOcCObeIJprl3tzmQBm6TOaz0sJccWOADJUswHFyMmyBnCIgNuHFHZ718W16faoQptHfPIKJ6UkiDSK953f2aERLGHci6GbhGfnzJXPFmp0DOiAFbPQ7GUQ=w122-h92-k-no,Không có,http://trungtamytequan7.medinet.gov.vn/,10.7377564,106.72353609999999,Trung tâm y tế Quận 7
Trạm Y Tế Phường Tân Phú Quận 7,"1 Đ. số 9, Tân Phú, Quận 7, Thành phố Hồ Chí Minh, Việt Nam",Trung tâm y tế,+84 28 3771 0343,downloaded_images\124e6542a12a6147c440d042b4ae9bde.jpg,https://lh3.googleusercontent.com/gps-cs-s/AG0ilSx-uvPLPM4ytwEuY6kZmO_Wjvf3mAkcrwTdBDYt2OzCHyhfeNVMp-rpREM1lNasurGlP8NiHeFdE2dQWWtmS4LoZb1do0gmF-xlNoxMbWwTpP6cwifITWSdlkGDTnjVoFN9FNfJ=w163-h92-k-no,Không có,Không có,10.7357511,106.7195122,Trung tâm y tế Quận 7
Trạm Y Tế Phường Tân Kiểng Quận 7,"98 Đ.13, Tân Quy, Quận 7, Thành phố Hồ Chí Minh, Việt Nam",Trung tâm y tế,+84 28 3771 3575,downloaded_images\0299c24541a7c3f0aae5320cbfa2be91.jpg,https://streetviewpixels-pa.googleapis.com/v1/thumbnail?panoid=VmbIkO27upEdkYUDG77uJQ&cb_client=search.gws-prod.gps&w=80&h=92&yaw=357.22253&pitch=0&thumbfov=100,Không có,Không có,10.746069199999999,106.7072865,Trung tâm y tế Quận 7
Đội Cảnh Sát Quản Lý Hành Chính Quận 7,"1366 Huỳnh Tấn Phát, Phú Mỹ, Quận 7, Thành phố Hồ Chí Minh, Việt Nam",['Văn phòng chính phủ'],+84 28 3983 2190,downloaded_images\b1760293f0722def50105e9e9bb8f601.jpg,https://lh3.googleusercontent.com/gps-cs-s/AG0ilSymjwVOa8LYQ_BJXyeXgcG6qtxA1rBwOYXED04w0QOOBq5WAKyQfHW9TVmLrHyk5qInfqetPm_PrbCnD_5GP8lcnmT5hDn13CiX7AvX8xRSMyT_9fm4E7bo8ILTANbF9RfK5_GUcsxmOCs-=w114-h86-k-no,Không có,Không có,10.7109927,106.736892,Đội Cảnh sát giao thông Quận 7
Đội PCCC & CNCH Quận 7,"1181 Đường Nguyễn Văn Linh, Tân Phong, Quận 7, Thành phố Hồ Chí Minh, Việt Nam",Trạm cứu hỏa,+84 28 3775 3781,downloaded_images\98b85d87a4a543fb54005bf0f935bef3.jpg,https://lh3.googleusercontent.com/gps-cs-s/AG0ilSxY9RSJt8V9pbRBbc1IU7AIusIbcrLvyk-qImIw7XoqVd_UN2qvHhbKpzGgS1ehXMgdNh7uFAxgUY669Y2woaQqB3tqCjZiiUCR3t5r7KZ5oYfFB85JHCWdYPqbKxXSGWQzdjodAEjZjPWw=w163-h92-k-no,Không có,Không có,10.7279508,106.7029469,Đội Cảnh sát PCCC và CNCH Quận 7
Cảnh sát PCCC Quận 7,"PPH3+536, Đường Nguyễn Văn Linh, Tân Phong, Quận 7, Thành phố Hồ Chí Minh, Việt Nam",Trạm cứu hỏa,Không có,downloaded_images\01d2d84d93a5b96ebd655d2f42f374f0.jpg,https://lh3.googleusercontent.com/gps-cs-s/AG0ilSyAUATm4_AL5ZcsXqh7vfySieX5NjsWuk3lCAz_dQk_CGFNU3P6FRbM83QBInEqBFmurfQYqlIP9UC5F5phQxXSKR24skEP1cPxJdBIKYLxyAVDqR4VcgpZpcJiofsF7_tLSWsk=w122-h92-k-no,Không có,Không có,10.7279033,106.70263589999999,Đội Cảnh sát PCCC và CNCH Quận 7
Văn phòng công chứng Nguyễn Văn Tuấn,"24-26 Đường Số 5, Khu đô thị Him Lam, Quận 7, Thành phố Hồ Chí Minh, Việt Nam",Dịch vụ pháp lý,+84 933 090 873,downloaded_images\e4b36e34afe72ed9f4f45ee3b24f11d2.jpg,https://lh3.googleusercontent.com/gps-cs-s/AG0ilSzcELLPamDY20K3_ytev-15-JSqw05fpHdXCpK2e9TuAnEmNMZXNB81r_RR1qV1nH6aMaXeN7RK8p4fzjj7-h8xrQbTZ5VHJnNRukc3yF8mAJQTGKmT46RKwLtY_32SmEn_40rU=w163-h92-k-no,Không có,Không có,10.7403029,106.6971726,Phòng công chứng Quận 7
Văn Phòng Công Chứng Nguyễn Đức Hưng,"10 Cao Triều Phát, Tân Phong, Quận 7, Thành phố Hồ Chí Minh, Việt Nam",Công chứng viên,+84 985 675 979,downloaded_images\1a051c26d22af1ce986bba0985fde637.jpg,https://lh3.googleusercontent.com/gps-cs-s/AG0ilSxIZljXrUG3dRb5A87Q-PbgtvndGnY--VUylNDWmzWVo3AZ9kVFCb6UCXPRBp8ehg_qgl2F20gvNS8xW6yu7gyR5JVOvyjArfUNKWGDSOUzUHISjyIN0qjnfPS4EHm_5GktVcv0uqFAF5Q=w122-h92-k-no,Không có,http://congchungnguyenduchung.com/,10.7321022,106.7100152,Phòng công chứng Quận 7
Văn phòng Công chứng Tân Thuận,"448 Đường Nguyễn Văn Linh, Phường Tân Mỹ, Quận 7, Thành phố Hồ Chí Minh, Việt Nam",Công chứng viên,+84 28 3771 3108,downloaded_images\eba320d3ec668d0f099b54782e0e2fb1.jpg,https://lh3.googleusercontent.com/gps-cs-s/AG0ilSz1j_U4fCn8wDj6vPBqGeif_75NWv_pd41_YrD8aslLO_XORk--dfNznpDZ7ipP-guUweKyPSFLvPo4OQfCmGH22ZQpRsdWHlvT00vLthOZLXLEuAE4KT4PB_xOqV0KYFBt2RjLvw=w187-h92-k-no,Không có,https://www.facebook.com/congchungtanthuan/,10.7373361,106.7212873,Phòng công chứng Quận 7
VĂN PHÒNG CÔNG CHỨNG BÙI THỊ XUÂN,"612A Huỳnh Tấn Phát, Tân Phú, Quận 7, Thành phố Hồ Chí Minh, Việt Nam",Công chứng viên,+84 827 787 413,downloaded_images\93fbedf28bd0501a239563c095dc4b2c.jpg,https://lh3.googleusercontent.com/gps-cs-s/AG0ilSyVqf0TNpedDaHvES7ZAfgCTMvct1kGNmuKLWIJ2xtC0G7w_dHHBDQpjYfy2ozVtZeUpgg7J_uTDPDkKi6tkoaWAQrRuhN5rWn2crA8j73ErC72EiMZrGH6NLXP2OMD7c0T9doQ=w122-h92-k-no,Không có,http://congchungbuithixuan.com/,10.7349795,106.730685,Phòng công chứng Quận 7
Văn phòng Công chứng Phú Mỹ Hưng,"NL 29 (D3), KBT Ngân Long, Đường Nguyễn Hữu Thọ, Phước Kiển, Nhà Bè, Thành phố Hồ Chí Minh, Việt Nam",Công chứng viên,+84 28 3781 7942,downloaded_images\2905aa1919efb69ab04b0de10b2f310f.jpg,https://lh3.googleusercontent.com/gps-cs-s/AG0ilSwR-rPChQe9iVo3rLm3K9b2onmldFUmIHHUGypl5OLmoAs8XEJeGqhi6DBiJz9xZGBSz8VdQcscXORkVjatN2VK4sSx7Vn-cE89-gJT26fY-0A8i2OrzNQ23twAscK40I-H9XPPVA=w122-h92-k-no,Không có,http://congchungphumyhung.vn/,10.718328999999999,106.70277469999999,Phòng công chứng Quận 7
Dịch thuật và Công Chứng Sao Kim Cương,"79 Hoàng Quốc Việt, Phú Mỹ, Quận 7, Thành phố Hồ Chí Minh, Việt Nam",Dịch vụ phiên âm,+84 931 687 249,downloaded_images\7bb5ea5a232c22b4e8ac0a4001ade554.jpg,https://lh3.googleusercontent.com/p/AF1QipPA67K98kyFz4qoBsS1WPRsEQPio1U34gCsLLb_=w80-h106-k-no,Không có,https://dichthuatsaokimcuong.com/,10.7138656,106.74059969999999,Phòng công chứng Quận 7
Văn Phòng Công Chứng Dương Thị Cẩm Thủy,"02 Đ. Số 41, Tân Phú, Quận 7, Thành phố Hồ Chí Minh, Việt Nam",Công chứng viên,Không có,downloaded_images\a5bbbc8d406b9f3e2a11b9a7f7fe1818.jpg,https://streetviewpixels-pa.googleapis.com/v1/thumbnail?panoid=wS6UnFaGV1tIsBWkiEfStA&cb_client=search.gws-prod.gps&w=80&h=92&yaw=165.38205&pitch=0&thumbfov=100,Không có,Không có,10.7580194,106.7000109,Phòng công chứng Quận 7
Văn Phòng Công Chứng Phước Thịnh,"58 Đ. Nguyễn Tất Thành, khu phố 3, Quận 7, Thành phố Hồ Chí Minh, Việt Nam",Công chứng viên,Không có,downloaded_images\0d796bca0856f2b3a586b0837c296a7c.jpg,https://streetviewpixels-pa.googleapis.com/v1/thumbnail?panoid=Izye5Vf_naIQq1aeuLXIvw&cb_client=search.gws-prod.gps&w=80&h=92&yaw=224.18369&pitch=0&thumbfov=100,Không có,Không có,10.7594128,106.7104854,Phòng công chứng Quận 7
Công An Quận 8,"993 Phạm Thế Hiển, Phường 5, Quận 8, Thành phố Hồ Chí Minh, Việt Nam",['Đồn cảnh sát'],Không có,downloaded_images\f1f314ba054f64522f58cf3bfb686ace.jpg,https://lh3.googleusercontent.com/gps-cs-s/AG0ilSxjBBPVpBiVdCSN5pAuZWmKzbq7meSz1p_LBx08fitOgm2reX1gJlLTBx3YIeJPr_cd-H9q2WHCc-pMAVyQdkqMw9d0U5yf2Zsyr2Fg9-Q8OETT7y0jHcloj4-DEj9Tb3Dq4L0=w86-h114-k-no,Không có,Không có,10.742264299999999,106.66781689999999,Công an Quận 8
Quận ủy Quận 8,"997 Phạm Thế Hiển, Phường 5, Quận 8, Thành phố Hồ Chí Minh, Việt Nam",Văn phòng chính phủ,Không có,downloaded_images\7be29414148ae9719a9c82c8d025712c.jpg,https://lh3.googleusercontent.com/gps-cs-s/AG0ilSw0o2Dp7slrbIaZFc5pFDY_7qkrdTGBXDFRRkIhTQ4iaH2X7FHUClJ4xVqSKZpTYGVM8wVKcVRLa3N-5Vfd2sjGuU8Izbmul58-cuiSK5daDEdtmfdBfqC_58BWfUtozjMd8Pz1=w122-h92-k-no,Không có,Không có,10.7415652,106.66505339999999,Ủy ban nhân dân Quận 8
UBND Phường 16 Quận 8,"450 Phú Định, Phường 16, Quận 8, Thành phố Hồ Chí Minh, Việt Nam",Văn phòng chính quyền địa phương,+84 28 3980 3669,downloaded_images\cc144584ac18a96c820b00b3a1a43b13.jpg,https://lh3.googleusercontent.com/gps-cs-s/AG0ilSzXQ8FvUPu8glqqO-YBYfRFjksQ872kUvBDWPkkSzGgV1s4SiEtZ74HsGQXg1xZj4zXh3lu7y3DpXIX7ZZSvecrp_pHPI5SwztlOzn97D4t_RAF_6xWGg7PjsQ67JNIyiN6TfcO=w163-h92-k-no,Không có,Không có,10.7121927,106.6234973,Ủy ban nhân dân Quận 8
Phòng Tài Chính – Kế Hoạch Quận 8,"Ủy Ban Nhân Dân Quận 8, 4, Đường 1011 Phạm Thế Hiển, Phường 5, Quận 8, Thành Phố Hồ Chí Minh, Phường 5, Quận 8, Thành phố Hồ Chí Minh, Việt Nam",Văn phòng chính quyền địa phương,+84 28 5431 4326,downloaded_images\f75ba6411e3ab7981c50d7c9bca5350a.jpg,https://streetviewpixels-pa.googleapis.com/v1/thumbnail?panoid=1y-7sTLle3Cm8X4lr970KQ&cb_client=search.gws-prod.gps&w=80&h=92&yaw=250.20944&pitch=0&thumbfov=100,Không có,http://www.quan8.hochiminhcity.gov.vn/,10.7409084,106.6656479,Ủy ban nhân dân Quận 8
Phòng Lao Động Thương Binh - Xã Hội Quận 8,"Ủy Ban Nhân Dân Quận 8, 4, Đường 1011 Phạm Thế Hiển, Phường 5, Quận 8, Thành Phố Hồ Chí Minh, Phường 5, Quận 8, Thành phố Hồ Chí Minh, Việt Nam",Văn phòng chính quyền địa phương,+84 28 5431 4306,downloaded_images\ffbb89f8cd81b10624684796df424998.jpg,https://streetviewpixels-pa.googleapis.com/v1/thumbnail?panoid=oDUWClx2W6SH9pJhnivAeQ&cb_client=search.gws-prod.gps&w=80&h=92&yaw=248.46605&pitch=0&thumbfov=100,Không có,http://www.quan8.hochiminhcity.gov.vn/,10.7410243,106.6657233,Ủy ban nhân dân Quận 8
Ủy Ban Nhân Dân Phường 6 Quận 8 Điểm Sinh Hoạt,"34 Bùi Minh Trực, Phường 6, Quận 8, Thành phố Hồ Chí Minh, Việt Nam",Trung tâm cộng đồng,Không có,downloaded_images\3dbcf2bc42eeddd28d9cbdec75a16344.jpg,https://streetviewpixels-pa.googleapis.com/v1/thumbnail?panoid=Vd5hJqRyqE_dOp2nmKHK3w&cb_client=search.gws-prod.gps&w=80&h=92&yaw=343.75848&pitch=0&thumbfov=100,Không có,Không có,10.7370513,106.6543923,Ủy ban nhân dân Quận 8
Bệnh viện Quận 8,,Bệnh viện đa khoa ở Thành phố Hồ Chí Minh,Không có,Không có,,Không có,http://bvquan8.medinet.gov.vn/Defaultmobile.aspx#,,,Bệnh viện Quận 8
Đội Cảnh Sát Giao Thông Quận 8,"993 Phạm Thế Hiển, Phường 5, Quận 8, Thành phố Hồ Chí Minh, Việt Nam",['Trạm cảnh sát giao thông'],+84 28 3850 0638,downloaded_images\1ac3476eb2cb2ba7c00affedbe623aad.jpg,https://lh3.googleusercontent.com/gps-cs-s/AG0ilSy04q0C0xSBVBm4RBYNllj6qGbV-yCPcgFKglZedGSujEdceqkT7ltXeLpaqy-yRdUIMxq1rvD_3puUE9QYEBIT2pirOdGGZgjZvmPBUf0GVapOIF_IRnj8KIGgMb0IUaLvHgaRlQ=w186-h86-k-no,Không có,Không có,10.7425801,106.6671265,Đội Cảnh sát giao thông Quận 8
Văn Phòng Công Chứng Quận 8,"13 Đ. 817A Tạ Quang Bửu, Phường 5, Quận 8, Thành phố Hồ Chí Minh, Việt Nam",Dịch vụ pháp lý,+84 938 095 388,downloaded_images\4d39f51771b5f2e2065a6ec8553da3c5.jpg,https://lh3.googleusercontent.com/gps-cs-s/AG0ilSyqmFudU8xnHjlY_N4QF6WuA0bLMFtmLTGfdYiX3ig9hUdB6TZqRNQTq-_LDVJyaI9oF2H9kB9cg09CSmziUoMkjgUaGX3nv9JD15zflQ9r1Te9gFJqQ2k0AfjCINmbupxckpw=w163-h92-k-no,Không có,http://congchungquan8.com.vn/,10.7349249,106.66907649999999,Phòng công chứng Quận 8
Công An Quận 10,"47 Đ. Thành Thái, Phường 14, Quận 10, Thành phố Hồ Chí Minh, Việt Nam","['Đồn cảnh sát', 'Văn phòng chính quyền quận']",+84 28 3865 7261,downloaded_images\7c7ca4bf55715790ea112fbacbf540b2.jpg,https://lh3.googleusercontent.com/gps-cs-s/AG0ilSx_0fEc5rKRcDkuUrR63XypZ3AD1uBTyEtwNZkYVABp2FbVC7S-mNDdGZjUr_onbOavylhjxIRN-DUIzzzHZGmYqes8WsQ-FxX2ZKUGZHwomureeVXTyUBheXNJfeYGZA2-j2uYxdTbD03B=w86-h114-k-no,Không có,Không có,10.7722641,106.66489179999999,Công an Quận 10
UBND Phường Diên Hồng,"474 Đ. 3 Tháng 2, Phường 14, Quận 10, Thành phố Hồ Chí Minh, Việt Nam",Văn phòng chính quyền quận,+84 28 3865 5907,downloaded_images\c150602ecf57f146874e2d8c37d53290.jpg,https://lh3.googleusercontent.com/gps-cs-s/AG0ilSzKr43L4EIeDmBbs4RTXhkefJjcuqgl-8e_KUNP6OqNp8Y_0H38b_IhflaliBV79CBG3oDdtPudH4jRu4VAz7YbNf6Wb9WK_tbFAy42tITdnF6mMEfkCsBDUhUIf5T8v5yZZwOCCHvRcYbj=w138-h92-k-no,Không có,http://www.quan10.hochiminhcity.gov.vn/,10.767919599999999,106.6665992,Ủy ban nhân dân Quận 10
UBND Phường 10 Quận 10,"537 Lê Hồng Phong, Phường 10, Quận 10, Thành phố Hồ Chí Minh, Việt Nam",Văn phòng chính quyền địa phương,+84 28 3834 6514,downloaded_images\9fd2d1270ce751f8e9f280ef4ad513fc.jpg,https://lh3.googleusercontent.com/gps-cs-s/AG0ilSzamUEElOT3oJ07S_o8W4ixg_LFqeyZQFQ5b3U0Ogu_qynbPhjfYzCuhHLCxYrG5-ItCG3zy9xbHn7VqS41x31iGoWyJJbHJPNAt_J6RUMKxfjXsu5o6IIbMrYf3qi08BGlDu7b=w122-h92-k-no,Không có,http://phuong12.quan10.gov.vn/,10.7681881,106.6740519,Ủy ban nhân dân Quận 10
UBND Phường 1 Quận 10,"31 Lý Thái Tổ, Phường 1, Quận 10, Thành phố Hồ Chí Minh, Việt Nam",Văn phòng chính quyền địa phương,+84 28 3835 8353,downloaded_images\35f35c3c17a05f1f42a51faacc3e9662.jpg,https://lh3.googleusercontent.com/gps-cs-s/AG0ilSzSn5oNp8Qa-5BgPJ_C3K3M-wHEEzCbNhBOEvaTkKjZ9n1_r6hfCqdXl0adJjmujOvSrQfJ1QBtbgakrG4cAv7zg32D9vl3ZpsHFB_R-Vb91CXS2M3OXAi_axtnF4iydR3Z31kF=w80-h106-k-no,Không có,http://phuong1.quan10.gov.vn/,10.7667504,106.67697009999999,Ủy ban nhân dân Quận 10
UBND Phường 15 Quận 10,"A8 Đ. Châu Thới, Phường 15, Quận 10, Thành phố Hồ Chí Minh, Việt Nam",Văn phòng chính quyền địa phương,+84 28 3864 6278,downloaded_images\599502b74c6c23d3926de176729ab23e.jpg,https://lh3.googleusercontent.com/gps-cs-s/AG0ilSxlLTXud9pjyCitXLLS93RQyd05ByOa0ltJGzxrVbZgIMx8rH7Axrev6s13pezMmt2i_7W2bclbaU9YTlqyy4OaxlIUgC7mJITi30oUA97-QTU1YKkIzbtCNe29tmtI0BFVe_T6GW5sON7r=w80-h106-k-no,Không có,Không có,10.782730899999999,106.6614147,Ủy ban nhân dân Quận 10
Bệnh viện Quận 10,,Bệnh viện ở Thành phố Hồ Chí Minh,Không có,Không có,,Không có,https://facebook.com/BenhVienQuan10/,,,Bệnh viện Quận 10
Đội CSGT Quận 10,,Cảnh sát dân sự ở Thành phố Hồ Chí Minh,Không có,Không có,,Không có,Không có,,,Đội Cảnh sát giao thông Quận 10
Đội PCCC & CNCH Quận 10,"676 Đ. 3 Tháng 2, Phường 14, Quận 10, Thành phố Hồ Chí Minh, Việt Nam",Trạm cứu hỏa,+84 918 414 356,downloaded_images\ef61cac3ce8f3348c1c1d4741fbd9783.jpg,https://lh3.googleusercontent.com/gps-cs-s/AG0ilSyqi27aamylAg2jfOizIoj1ygNA0zayuWSgSVgDUDR7TxQThJ8WN0b2gYY58tOddtIjhQBSS1yl2ZHPPDaaO56G5jXzPlpBTM8PzDyO9S2zq2LpNEXn57XgBl0I6L3WuixrhfSmwXHG9Lh9=w80-h106-k-no,Không có,Không có,10.7650924,106.66073039999999,Đội Cảnh sát PCCC và CNCH Quận 10
Đội PCCC & CNCH Quận 11,"225 Đ. Lý Thường Kiệt, Phường 15, Quận 11, Thành phố Hồ Chí Minh, Việt Nam",Trạm cứu hỏa,Không có,downloaded_images\e0ed6c391b4e825d5a0194f00e5c772d.jpg,https://lh3.googleusercontent.com/gps-cs-s/AG0ilSzFvcgS7U9CvR_iZbN2T4DNILMinoMs3yzjRxreDt20UVdL-eLASNzJbt9GZQKsL5yjaH81Dg8qDf61GxDqEw7wmflIP8r8WTDglmitH9CCpt6tv5sK1RxQcHafOlZ1FMRukm99=w163-h92-k-no,Không có,/url?q=http://www.pccc.hochiminhcity.gov.vn/&opi=79508299&sa=U&ved=0ahUKEwijg730sqiRAxVYMtAFHYt5PKMQ61gIbSgN&usg=AOvVaw0_cr8hEVsQ1Qn11ZsFpk9Y,10.7707138,106.6577578,Đội Cảnh sát PCCC và CNCH Quận 10
Văn phòng công chứng Lê Kim Thanh,"335 Tô Hiến Thành, Phường 12, Quận 10, Thành phố Hồ Chí Minh, Việt Nam",Công chứng viên,+84 931 208 199,downloaded_images\d60c504fb1fd0d2f6844cf75d60699fd.jpg,https://lh3.googleusercontent.com/gps-cs-s/AG0ilSw0jCzgFx1BcxfVFyNVBslYH03p7_gb5XLpETayMX0ElZTSB4B9jaP_fgZQpXco9eZvcJXsP-UC2HsEt4V0X5auWh7BElLe3lXa9Fz0VvsH_q6p0bsM55Yd_5e2XIEelm16kxdo=w122-h92-k-no,Không có,http://congchunglekimthanh.vn/,10.7772712,106.66499879999999,Phòng công chứng Quận 10
Công Chứng ĐỒNG THỊ HẠNH,"380 Ngô Gia Tự, Phường 4, Quận 10, Thành phố Hồ Chí Minh 72510, Việt Nam",Công chứng viên,Không có,downloaded_images\0d3071518eecc684653afeb9b84c5c5d.jpg,https://lh3.googleusercontent.com/p/AF1QipNvGJzOptvx-l8OZnJUfvyVv89xTrVjIkpsgeKR=w163-h92-k-no,Không có,Không có,10.7619571,106.6702188,Phòng công chứng Quận 10
Dịch thuật công chứng Asean Quận 10,"441 Lý Thái Tổ, Phường 9, Quận 10, Thành phố Hồ Chí Minh 72507, Việt Nam",Công chứng viên,+84 589 038 668,downloaded_images\a124dc2ae7544fb59feacea2a32d2ff5.jpg,https://lh3.googleusercontent.com/p/AF1QipPkZl9NyT0OMJv6gPDok09DXnXXwKSoYMtWWIw=w163-h92-k-no,Không có,https://dichthuatasean.com/,10.767803899999999,106.6686987,Phòng công chứng Quận 10
VPCC Mai Việt Cường,"236 Cao Thắng, Phường 12, Quận 10, Thành phố Hồ Chí Minh 67000, Việt Nam",Văn phòng công ty,+84 909 399 971,downloaded_images\8e339f8466f3a44a9058ed6154718955.jpg,https://lh3.googleusercontent.com/p/AF1QipNQ8XXKGHqzmlHi9CCjIYZoZJM4B3Ej2TL89HTS=w92-h92-k-no,Không có,https://congchung.org/,10.774823399999999,106.6760868,Phòng công chứng Quận 10
Văn phòng Thừa Phát Lại Quận 10,"137 Đ. 3 Tháng 2, Phường 10, Quận 10, Thành phố Hồ Chí Minh, Việt Nam",Người tống đạt trát tòa,+84 28 3833 6566,downloaded_images\9f7272d9aed339280e3c68c8bf24a8e5.jpg,https://lh3.googleusercontent.com/gps-cs-s/AG0ilSwE960v0s5e0P86voQnv2KebFIzyFr-nypSrYiSQbw_XmTUbXP-kQlibl_kyNBLQEH7MgQiDoO3yD55EWtXIecq9jYZRFplfdW-Ic93J2imDtlgWTrsYkBvuV_79VF-eA0w2uBJmw=w80-h106-k-no,Không có,Không có,10.7728099,106.676375,Phòng công chứng Quận 10
Công an Quận 11,,Cảnh sát dân sự ở Thành phố Hồ Chí Minh,Không có,Không có,,Không có,Không có,,,Công an Quận 11
Trung Tâm Y Tế Dự Phòng Q11,"72 Đường Số 5 - Cư xá Bình Thới, Phường 8, Quận 11, Thành phố Hồ Chí Minh, Việt Nam",Bệnh viện,+84 28 3858 7259,downloaded_images\f21ed851f6a56fa05486306388521814.jpg,https://lh3.googleusercontent.com/gps-cs-s/AG0ilSxAYkJS5ksI2VMPuAf3Rr5LPtvQ-FW1grYxENgjUaLj3LMW5LvVvH1BXfE7VnRdS-QXiW_K96P2Lubnd8uQPSLcauXXSXlIP9TmglaKFyX0Qf3lEiFu6r95LDT4IW5TX7y3QkwEdA=w80-h106-k-no,Không có,Không có,10.76056,106.6477893,Trung tâm y tế Quận 11
Trạm Y Tế Phường 11 Quận 11,"351/7B Cư Xá Lê Đại Hành, Phường 11, Quận 11, Thành phố Hồ Chí Minh, Việt Nam",Trung tâm y tế,+84 28 3962 6653,downloaded_images\e3a1465441761e6372b0c5f28f5bd15c.jpg,https://lh3.googleusercontent.com/gps-cs-s/AG0ilSwJBTcUPDil6R0yQvH7qJo1OCeB8uKRo1-SjjRf2FyKSQvZH-uv45tDY9ygOVdIpiP_jM1RKFohgm0x2fVAOAAymcoHwQ_Jwj4uIj35DzdDBHNPJQdFo1ZikeToPXE3Rs9eTPDQ=w80-h106-k-no,Không có,Không có,10.7661116,106.651281,Trung tâm y tế Quận 11
Trạm Y Tế Phường 1 Quận 11,"1300 Đ. 3 Tháng 2, Phường 1, Quận 11, Thành phố Hồ Chí Minh, Việt Nam",Trung tâm y tế,+84 28 3960 9833,downloaded_images\b78f561adb6edab5b9218544178c465c.jpg,https://streetviewpixels-pa.googleapis.com/v1/thumbnail?panoid=gvcvNVamz5pcA-v22X8_vQ&cb_client=search.gws-prod.gps&w=80&h=92&yaw=338.45956&pitch=0&thumbfov=100,Không có,Không có,10.7573943,106.64774969999999,Trung tâm y tế Quận 11
Trạm Y Tế Phường 5 Quận 11,"45c Lạc Long Quân, Phường 5, Quận 11, Thành phố Hồ Chí Minh, Việt Nam",Trung tâm y tế,+84 28 3860 0073,downloaded_images\30c3d3849088e3cad52dd532ce237829.jpg,https://lh3.googleusercontent.com/gps-cs-s/AG0ilSxRUcLXC9iZ_CvVmeuoauDGWIJqZ6nxTYgOuF_Iafco8kcisukbGRi5L7L7pkLMtuCP3OPYyW1p8xqYYPORf-H8thqxiS2oj7Oak8llF1khgp7jF71n7mIFeLzZxf8bMGbpEudh=w122-h92-k-no,Không có,Không có,10.769096099999999,106.6444368,Trung tâm y tế Quận 11
